[{"id":1,"create_date":"2021-04-06T07:42:53.844Z","update_date":"2022-11-15T06:44:10.655Z","region":1,"city":1,"address":"Նալբանդյան 21","postal_code":"0001","work_days":"09:00-17:30","work_days_break_time":null,"work_days_outside":null,"sunday":null,"saturday_break_time":null,"saturday_outside":null,"saturday":"10:00-16:00","sunday_break_time":null,"sunday_outside":null,"lat":40.1808013916016,"long":44.5186004638672,"status":true},{"id":2,"create_date":"2021-04-06T07:42:53.862Z","update_date":"2022-11-15T06:45:02.614Z","region":1,"city":1,"address":"Սարյան 22","postal_code":"0002","work_days":"09:00-17:30","work_days_break_time":null,"work_days_outside":null,"sunday":null,"saturday_break_time":null,"saturday_outside":null,"saturday":"10:00-16:00","sunday_break_time":null,"sunday_outside":null,"lat":40.1844749450684,"long":44.5065078735351,"status":true},{"id":3,"create_date":"2021-04-06T07:42:53.864Z","update_date":"2022-11-15T06:45:45.428Z","region":1,"city":1,"address":"Ներքին Չարբախ, 3-րդ փողոց, 31/4 ","postal_code":"0003","work_days":"10:00-17:30","work_days_break_time":"13:00-14:00","work_days_outside":null,"sunday":null,"saturday_break_time":"13:00-14:00","saturday_outside":null,"saturday":"11:00-17:00","sunday_break_time":null,"sunday_outside":null,"lat":40.127833,"long":44.445308,"status":true},{"id":4,"create_date":"2021-04-06T07:42:53.867Z","update_date":"2022-12-12T06:02:22.891Z","region":1,"city":1,"address":"Հ/ա Զանգվ.բ-2թ.138շ.","postal_code":"0004","work_days":"09:00-17:30","work_days_break_time":null,"work_days_outside":null,"sunday":null,"saturday_break_time":null,"saturday_outside":null,"saturday":"10:00-16:00","sunday_break_time":null,"sunday_outside":null,"lat":40.1668,"long":44.4474,"status":true},{"id":5,"create_date":"2021-04-06T07:42:53.870Z","update_date":"2022-11-15T06:47:32.360Z","region":1,"city":1,"address":"Արցախի 4","postal_code":"0005","work_days":"09:00-17:30","work_days_break_time":null,"work_days_outside":null,"sunday":null,"saturday_break_time":null,"saturday_outside":null,"saturday":"10:00-16:00","sunday_break_time":null,"sunday_outside":null,"lat":40.1542,"long":44.5099,"status":true},{"id":6,"create_date":"2021-04-06T07:42:53.872Z","update_date":"2022-11-15T06:48:37.046Z","region":1,"city":1,"address":"Գարեգին Նժդեհի 7","postal_code":"0006","work_days":"09:00-17:30","work_days_break_time":null,"work_days_outside":null,"sunday":null,"saturday_break_time":null,"saturday_outside":null,"saturday":"10:00-16:00","sunday_break_time":null,"sunday_outside":null,"lat":40.1514,"long":44.4869,"status":true},{"id":8,"create_date":"2021-04-06T07:42:53.875Z","update_date":"2022-11-15T06:49:55.408Z","region":1,"city":1,"address":"Սասունցի Դավթի 6","postal_code":"0008","work_days":"09:00-17:30","work_days_break_time":null,"work_days_outside":null,"sunday":null,"saturday_break_time":null,"saturday_outside":null,"saturday":"10:00-16:00","sunday_break_time":null,"sunday_outside":null,"lat":40.154883,"long":44.51246,"status":true},{"id":9,"create_date":"2021-04-06T07:42:53.877Z","update_date":"2023-08-25T07:49:53.564Z","region":1,"city":1,"address":"Կորյունի 25/1","postal_code":"0009","work_days":"10:00-17:30","work_days_break_time":null,"work_days_outside":null,"sunday":null,"saturday_break_time":null,"saturday_outside":null,"saturday":"10:00-16:00","sunday_break_time":null,"sunday_outside":null,"lat":40.1901,"long":44.5196,"status":true},{"id":10,"create_date":"2021-04-06T07:42:53.878Z","update_date":"2023-05-31T12:34:03.627Z","region":1,"city":1,"address":"Նալբանդյան 28","postal_code":"0010","work_days":"08:00-23:59","work_days_break_time":null,"work_days_outside":null,"sunday":"10:00-15:00","saturday_break_time":null,"saturday_outside":null,"saturday":"09:00-21:00","sunday_break_time":null,"sunday_outside":null,"lat":40.1766,"long":44.5131,"status":true},{"id":11,"create_date":"2021-04-06T07:42:53.880Z","update_date":"2022-11-15T07:06:45.812Z","region":1,"city":1,"address":"Հին Նորք 74","postal_code":"0011","work_days":"09:00-17:30","work_days_break_time":null,"work_days_outside":null,"sunday":null,"saturday_break_time":null,"saturday_outside":null,"saturday":"10:00-16:00","sunday_break_time":null,"sunday_outside":null,"lat":40.191941,"long":44.538245,"status":true},{"id":12,"create_date":"2021-04-06T07:42:53.882Z","update_date":"2022-11-15T07:08:21.693Z","region":1,"city":1,"address":"Կոմիտասի 19","postal_code":"0012","work_days":"09:00-20:00","work_days_break_time":null,"work_days_outside":null,"sunday":null,"saturday_break_time":null,"saturday_outside":null,"saturday":"09:00-17:00","sunday_break_time":null,"sunday_outside":null,"lat":40.204,"long":44.5009,"status":true},{"id":13,"create_date":"2021-04-06T07:42:53.883Z","update_date":"2023-03-13T06:51:53.624Z","region":1,"city":1,"address":"Տիգրան Մեծի 1 Նրբ. 1 Շենք","postal_code":"0013","work_days":"09:00-18:00","work_days_break_time":null,"work_days_outside":null,"sunday":null,"saturday_break_time":null,"saturday_outside":null,"saturday":"10:00-14:00","sunday_break_time":null,"sunday_outside":null,"lat":40.1593,"long":44.5085,"status":true},{"id":14,"create_date":"2021-04-06T07:42:53.885Z","update_date":"2022-11-15T07:11:29.346Z","region":1,"city":1,"address":"Շիրվանզադե 2","postal_code":"0014","work_days":"09:00-17:30","work_days_break_time":null,"work_days_outside":null,"sunday":null,"saturday_break_time":null,"saturday_outside":null,"saturday":"10:00-16:00","sunday_break_time":null,"sunday_outside":null,"lat":40.2068,"long":44.5253,"status":true},{"id":15,"create_date":"2021-04-06T07:42:53.887Z","update_date":"2022-11-15T07:12:53.288Z","region":1,"city":1,"address":"Գ. Լուսավորչի 12","postal_code":"0015","work_days":"09:00-17:30","work_days_break_time":null,"work_days_outside":null,"sunday":null,"saturday_break_time":null,"saturday_outside":null,"saturday":"10:00-16:00","sunday_break_time":null,"sunday_outside":null,"lat":40.1767,"long":44.504,"status":true},{"id":854,"create_date":"2022-01-04T09:00:36.966Z","update_date":"2022-11-15T07:13:44.026Z","region":1,"city":1,"address":"Նաիրի Զարյան 27, Արաբկիրի թաղապետարան","postal_code":"0016","work_days":"09:00-17:30","work_days_break_time":"13:00-14:00","work_days_outside":null,"sunday":null,"saturday_break_time":null,"saturday_outside":null,"saturday":null,"sunday_break_time":null,"sunday_outside":null,"lat":40.204568,"long":44.517596,"status":true},{"id":16,"create_date":"2021-04-06T07:42:53.888Z","update_date":"2022-11-15T07:14:33.200Z","region":1,"city":1,"address":"Սարի Թաղ 7փ. 86շ.","postal_code":"0017","work_days":"10:00-17:30","work_days_break_time":null,"work_days_outside":null,"sunday":null,"saturday_break_time":null,"saturday_outside":null,"saturday":"10:00-16:00","sunday_break_time":null,"sunday_outside":null,"lat":40.163103,"long":44.527845,"status":true},{"id":17,"create_date":"2021-04-06T07:42:53.891Z","update_date":"2022-11-15T07:15:21.840Z","region":1,"city":1,"address":"Տիգրան Մեծի 36","postal_code":"0018","work_days":"09:00-17:30","work_days_break_time":null,"work_days_outside":null,"sunday":null,"saturday_break_time":null,"saturday_outside":null,"saturday":"10:00-16:00","sunday_break_time":null,"sunday_outside":null,"lat":40.1649,"long":44.5124,"status":true},{"id":18,"create_date":"2021-04-06T07:42:53.893Z","update_date":"2022-11-15T07:16:11.704Z","region":1,"city":1,"address":"Մ.Բաղրամյան 23","postal_code":"0019","work_days":"09:00-17:30","work_days_break_time":null,"work_days_outside":null,"sunday":null,"saturday_break_time":null,"saturday_outside":null,"saturday":"10:00-16:00","sunday_break_time":null,"sunday_outside":null,"lat":40.1918,"long":44.5046,"status":true},{"id":19,"create_date":"2021-04-06T07:42:53.895Z","update_date":"2023-02-14T13:08:10.707Z","region":1,"city":1,"address":"Էրեբունի 31","postal_code":"0020","work_days":"09:00-17:30","work_days_break_time":null,"work_days_outside":null,"sunday":null,"saturday_break_time":null,"saturday_outside":null,"saturday":"10:00-16:00","sunday_break_time":null,"sunday_outside":null,"lat":40.1418,"long":44.5289,"status":true},{"id":20,"create_date":"2021-04-06T07:42:53.897Z","update_date":"2023-08-08T11:34:54.083Z","region":1,"city":1,"address":"Ավան-առինջ 2/5","postal_code":"0022","work_days":"10:00-17:30","work_days_break_time":"14:00-15:00","work_days_outside":null,"sunday":null,"saturday_break_time":"14:00-15:00","saturday_outside":null,"saturday":"11:00-17:00","sunday_break_time":null,"sunday_outside":null,"lat":40.2243,"long":44.5738,"status":true},{"id":21,"create_date":"2021-04-06T07:42:53.898Z","update_date":"2022-11-15T07:27:44.622Z","region":1,"city":1,"address":"Արշակունյաց 16ա","postal_code":"0023","work_days":"10:00-17:30","work_days_break_time":null,"work_days_outside":null,"sunday":null,"saturday_break_time":null,"saturday_outside":null,"saturday":"10:00-16:00","sunday_break_time":null,"sunday_outside":null,"lat":40.1686,"long":44.5067,"status":true},{"id":22,"create_date":"2021-04-06T07:42:53.900Z","update_date":"2022-11-15T07:29:02.842Z","region":1,"city":1,"address":"Մ.Բաղրամյան 26/1","postal_code":"0024","work_days":"09:00-17:30","work_days_break_time":"13:00-14:00","work_days_outside":null,"sunday":null,"saturday_break_time":null,"saturday_outside":null,"saturday":null,"sunday_break_time":null,"sunday_outside":null,"lat":40.192752,"long":44.506177,"status":true},{"id":23,"create_date":"2021-04-06T07:42:53.902Z","update_date":"2022-11-15T07:29:56.684Z","region":1,"city":1,"address":"Չարենցի 1բ","postal_code":"0025","work_days":"09:00-17:30","work_days_break_time":null,"work_days_outside":null,"sunday":null,"saturday_break_time":null,"saturday_outside":null,"saturday":"10:00-16:00","sunday_break_time":null,"sunday_outside":null,"lat":40.1842,"long":44.5273,"status":true},{"id":24,"create_date":"2021-04-06T07:42:53.903Z","update_date":"2023-02-14T13:10:47.899Z","region":1,"city":1,"address":"Գ. Նժդեհի 31/36","postal_code":"0026","work_days":"09:00-17:30","work_days_break_time":null,"work_days_outside":null,"sunday":null,"saturday_break_time":null,"saturday_outside":null,"saturday":"10:00-16:00","sunday_break_time":null,"sunday_outside":null,"lat":40.1525,"long":44.4979,"status":true},{"id":26,"create_date":"2021-04-06T07:42:53.906Z","update_date":"2022-11-15T07:32:27.011Z","region":1,"city":1,"address":"Կիևյան 4","postal_code":"0028","work_days":"09:00-17:30","work_days_break_time":null,"work_days_outside":null,"sunday":null,"saturday_break_time":null,"saturday_outside":null,"saturday":"10:00-16:00","sunday_break_time":null,"sunday_outside":null,"lat":40.1931,"long":44.4854,"status":true},{"id":27,"create_date":"2021-04-06T07:42:53.908Z","update_date":"2022-11-15T07:34:02.117Z","region":1,"city":1,"address":"Սիլիկյան թղմ, 4-րդ փողոց, 24/3 ","postal_code":"0029","work_days":"10:00-17:30","work_days_break_time":"14:00-15:00","work_days_outside":null,"sunday":null,"saturday_break_time":"13:00-14:00","saturday_outside":null,"saturday":"10:00-16:00","sunday_break_time":null,"sunday_outside":null,"lat":40.209491,"long":44.438271,"status":true},{"id":28,"create_date":"2021-04-06T07:42:53.909Z","update_date":"2022-11-15T07:35:21.036Z","region":1,"city":1,"address":"Լենինգրադյան 52","postal_code":"0031","work_days":"09:00-17:30","work_days_break_time":null,"work_days_outside":null,"sunday":null,"saturday_break_time":null,"saturday_outside":null,"saturday":"10:00-16:00","sunday_break_time":null,"sunday_outside":null,"lat":40.1912,"long":44.4633,"status":true},{"id":29,"create_date":"2021-04-06T07:42:53.911Z","update_date":"2022-11-15T07:36:48.141Z","region":1,"city":1,"address":"Սեբաստիա 78","postal_code":"0032","work_days":"09:00-17:30","work_days_break_time":null,"work_days_outside":null,"sunday":null,"saturday_break_time":null,"saturday_outside":null,"saturday":"10:00-16:00","sunday_break_time":null,"sunday_outside":null,"lat":40.172,"long":44.4566,"status":true},{"id":30,"create_date":"2021-04-06T07:42:53.912Z","update_date":"2022-11-15T07:37:47.513Z","region":1,"city":1,"address":"Կասյան 1","postal_code":"0033","work_days":"09:00-17:30","work_days_break_time":null,"work_days_outside":null,"sunday":null,"saturday_break_time":null,"saturday_outside":null,"saturday":"10:00-16:00","sunday_break_time":null,"sunday_outside":null,"lat":40.1987,"long":44.4931,"status":true},{"id":31,"create_date":"2021-04-06T07:42:53.914Z","update_date":"2022-11-15T07:39:12.297Z","region":1,"city":1,"address":"Հ.Սվաճյան 32","postal_code":"0034","work_days":"09:00-17:30","work_days_break_time":null,"work_days_outside":null,"sunday":null,"saturday_break_time":null,"saturday_outside":null,"saturday":"10:00-16:00","sunday_break_time":null,"sunday_outside":null,"lat":40.1756,"long":44.444,"status":true},{"id":33,"create_date":"2021-04-06T07:42:53.917Z","update_date":"2022-11-15T07:40:37.025Z","region":1,"city":1,"address":"Ալիխանյան Եղբայրների 7","postal_code":"0036","work_days":"10:00-17:30","work_days_break_time":"13:00-14:00","work_days_outside":null,"sunday":null,"saturday_break_time":"13:00-14:00","saturday_outside":null,"saturday":"11:00-17:00","sunday_break_time":null,"sunday_outside":null,"lat":40.204469,"long":44.484169,"status":true},{"id":34,"create_date":"2021-04-06T07:42:53.918Z","update_date":"2022-11-15T07:41:54.283Z","region":1,"city":1,"address":"Ազատության 2","postal_code":"0037","work_days":"09:00-17:30","work_days_break_time":null,"work_days_outside":null,"sunday":null,"saturday_break_time":null,"saturday_outside":null,"saturday":"10:00-16:00","sunday_break_time":null,"sunday_outside":null,"lat":40.1991,"long":44.5203,"status":true},{"id":35,"create_date":"2021-04-06T07:42:53.920Z","update_date":"2022-11-15T07:43:42.709Z","region":1,"city":1,"address":"Շինարարների 10","postal_code":"0038","work_days":"10:00-17:30","work_days_break_time":null,"work_days_outside":null,"sunday":null,"saturday_break_time":null,"saturday_outside":null,"saturday":"10:00-16:00","sunday_break_time":null,"sunday_outside":null,"lat":40.1941,"long":44.4745,"status":true},{"id":36,"create_date":"2021-04-06T07:42:53.921Z","update_date":"2022-11-15T07:44:41.534Z","region":1,"city":1,"address":"Բագրատունյաց 7","postal_code":"0039","work_days":"09:00-17:30","work_days_break_time":null,"work_days_outside":null,"sunday":null,"saturday_break_time":null,"saturday_outside":null,"saturday":"10:00-16:00","sunday_break_time":null,"sunday_outside":null,"lat":40.1545,"long":44.4792,"status":true},{"id":38,"create_date":"2021-04-06T07:42:53.925Z","update_date":"2022-11-15T07:48:32.609Z","region":1,"city":1,"address":"Էրեբունի 3","postal_code":"0041","work_days":"09:00-17:30","work_days_break_time":null,"work_days_outside":null,"sunday":null,"saturday_break_time":null,"saturday_outside":null,"saturday":"10:00-16:00","sunday_break_time":null,"sunday_outside":null,"lat":40.1426,"long":44.5129,"status":true},{"id":40,"create_date":"2021-04-06T07:42:53.928Z","update_date":"2023-08-25T07:50:15.959Z","region":1,"city":1,"address":"Շիրակի 7/1","postal_code":"0043","work_days":"09:00-17:30","work_days_break_time":null,"work_days_outside":null,"sunday":null,"saturday_break_time":null,"saturday_outside":null,"saturday":"10:00-16:00","sunday_break_time":null,"sunday_outside":null,"lat":40.143,"long":44.464,"status":true},{"id":41,"create_date":"2021-04-06T07:42:53.930Z","update_date":"2022-11-15T07:51:36.693Z","region":1,"city":1,"address":"Դուրյան Թաղ. 37","postal_code":"0044","work_days":"10:00-17:30","work_days_break_time":"13:00-14:00","work_days_outside":null,"sunday":null,"saturday_break_time":"13:00-14:00","saturday_outside":null,"saturday":"10:00-16:00","sunday_break_time":null,"sunday_outside":null,"lat":40.213652,"long":44.582304,"status":true},{"id":91,"create_date":"2021-04-06T07:42:54.056Z","update_date":"2022-11-15T07:53:28.659Z","region":1,"city":1,"address":"Դավիթաշեն 2-րդ փողոց, 40/3 ","postal_code":"0045","work_days":"10:00-17:30","work_days_break_time":"13:00-14:00","work_days_outside":null,"sunday":null,"saturday_break_time":"13:00-14:00","saturday_outside":null,"saturday":"11:00-17:00","sunday_break_time":null,"sunday_outside":null,"lat":40.215006,"long":44.482058,"status":true},{"id":42,"create_date":"2021-04-06T07:42:53.931Z","update_date":"2022-11-15T07:57:03.234Z","region":1,"city":1,"address":"Բագրատունյաց 22/2","postal_code":"0046","work_days":"09:00-17:30","work_days_break_time":null,"work_days_outside":null,"sunday":null,"saturday_break_time":null,"saturday_outside":null,"saturday":"10:00-16:00","sunday_break_time":null,"sunday_outside":null,"lat":40.1494,"long":44.485,"status":true},{"id":44,"create_date":"2021-04-06T07:42:53.935Z","update_date":"2023-08-25T08:00:05.673Z","region":1,"city":1,"address":"Հ.Բեկնազարյան 11 կամ Նորաշեն թաղ. 38 շենք .","postal_code":"0048","work_days":"09:00-16:30","work_days_break_time":"13:00-14:00","work_days_outside":null,"sunday":null,"saturday_break_time":"13:00-14:00","saturday_outside":null,"saturday":"10:00-16:00","sunday_break_time":null,"sunday_outside":null,"lat":40.2112,"long":44.4723,"status":true},{"id":46,"create_date":"2021-04-06T07:42:53.938Z","update_date":"2022-11-15T08:01:10.453Z","region":1,"city":1,"address":"Չեխովի 6","postal_code":"0050","work_days":"09:00-17:30","work_days_break_time":null,"work_days_outside":null,"sunday":null,"saturday_break_time":null,"saturday_outside":null,"saturday":"10:00-16:00","sunday_break_time":null,"sunday_outside":null,"lat":40.157,"long":44.4854,"status":true},{"id":47,"create_date":"2021-04-06T07:42:53.940Z","update_date":"2022-11-15T08:02:53.614Z","region":1,"city":1,"address":"Կոմիտասի 41","postal_code":"0051","work_days":"09:00-17:30","work_days_break_time":null,"work_days_outside":null,"sunday":null,"saturday_break_time":null,"saturday_outside":null,"saturday":"10:00-16:00","sunday_break_time":null,"sunday_outside":null,"lat":40.2071,"long":44.512,"status":true},{"id":48,"create_date":"2021-04-06T07:42:53.941Z","update_date":"2022-11-15T08:04:26.540Z","region":1,"city":1,"address":"Զ. Սարկավագի 77","postal_code":"0052","work_days":"09:00-16:30","work_days_break_time":null,"work_days_outside":null,"sunday":null,"saturday_break_time":null,"saturday_outside":null,"saturday":"10:00-17:00","sunday_break_time":null,"sunday_outside":null,"lat":40.220602,"long":44.541517,"status":true},{"id":50,"create_date":"2021-04-06T07:42:53.944Z","update_date":"2022-11-15T08:05:05.689Z","region":1,"city":1,"address":"Տիգրան Պետրոսյան 17/6","postal_code":"0054","work_days":"09:00-20:00","work_days_break_time":null,"work_days_outside":null,"sunday":null,"saturday_break_time":null,"saturday_outside":null,"saturday":"10:00-17:00","sunday_break_time":null,"sunday_outside":null,"lat":40.2184,"long":44.4899,"status":true},{"id":51,"create_date":"2021-04-06T07:42:53.946Z","update_date":"2023-08-25T08:00:57.700Z","region":1,"city":1,"address":"Եղիշե Թադևոսյան 12/11","postal_code":"0055","work_days":"09:00-17:30","work_days_break_time":null,"work_days_outside":null,"sunday":null,"saturday_break_time":null,"saturday_outside":null,"saturday":"10:00-16:00","sunday_break_time":null,"sunday_outside":null,"lat":40.1446,"long":44.4881,"status":true},{"id":52,"create_date":"2021-04-06T07:42:53.947Z","update_date":"2022-11-15T08:06:40.322Z","region":1,"city":1,"address":"Նանսենի 10","postal_code":"0056","work_days":"09:00-17:30","work_days_break_time":null,"work_days_outside":null,"sunday":null,"saturday_break_time":null,"saturday_outside":null,"saturday":"10:00-16:00","sunday_break_time":null,"sunday_outside":null,"lat":40.2,"long":44.5613,"status":true},{"id":54,"create_date":"2021-04-06T07:42:53.953Z","update_date":"2022-11-15T08:07:48.451Z","region":1,"city":1,"address":"Դավթաշեն, 1-ին Թաղ., 48 Շենք, 76 Տարածք","postal_code":"0058","work_days":"09:00-17:30","work_days_break_time":null,"work_days_outside":null,"sunday":null,"saturday_break_time":null,"saturday_outside":null,"saturday":"10:00-16:00","sunday_break_time":null,"sunday_outside":null,"lat":40.2184337263457,"long":44.4898528028996,"status":true},{"id":55,"create_date":"2021-04-06T07:42:53.954Z","update_date":"2022-11-15T08:08:30.101Z","region":1,"city":1,"address":"Վիլնյուսի Փող. 6","postal_code":"0059","work_days":"09:00-17:30","work_days_break_time":null,"work_days_outside":null,"sunday":null,"saturday_break_time":null,"saturday_outside":null,"saturday":"10:00-16:00","sunday_break_time":null,"sunday_outside":null,"lat":40.1702,"long":44.566,"status":true},{"id":56,"create_date":"2021-04-06T07:42:53.956Z","update_date":"2023-01-16T05:38:36.057Z","region":1,"city":1,"address":"Իսահակյան Թաղ. 7շ.","postal_code":"0060","work_days":"09:00-17:30","work_days_break_time":null,"work_days_outside":null,"sunday":null,"saturday_break_time":null,"saturday_outside":null,"saturday":"10:00-16:00","sunday_break_time":null,"sunday_outside":null,"lat":40.2162,"long":44.5794,"status":true},{"id":57,"create_date":"2021-04-06T07:42:53.957Z","update_date":"2022-11-15T08:15:05.768Z","region":1,"city":1,"address":"Արշակունյաց 54","postal_code":"0061","work_days":"09:00-17:30","work_days_break_time":null,"work_days_outside":null,"sunday":null,"saturday_break_time":null,"saturday_outside":null,"saturday":"10:00-16:00","sunday_break_time":null,"sunday_outside":null,"lat":40.1455,"long":44.4967,"status":true},{"id":58,"create_date":"2021-04-06T07:42:53.959Z","update_date":"2022-11-15T08:16:01.979Z","region":1,"city":1,"address":"Նորքի 2-րդ Զ. Թոթովենցի 3","postal_code":"0062","work_days":"09:00-20:00","work_days_break_time":null,"work_days_outside":null,"sunday":null,"saturday_break_time":null,"saturday_outside":null,"saturday":"10:00-17:00","sunday_break_time":null,"sunday_outside":null,"lat":40.2017,"long":44.5699,"status":true},{"id":59,"create_date":"2021-04-06T07:42:54.000Z","update_date":"2022-11-15T08:16:49.551Z","region":1,"city":1,"address":"Մ.Խուդյակովի 38","postal_code":"0063","work_days":"10:00-17:30","work_days_break_time":null,"work_days_outside":null,"sunday":null,"saturday_break_time":null,"saturday_outside":null,"saturday":"10:00-16:00","sunday_break_time":null,"sunday_outside":null,"lat":40.210332,"long":44.565506,"status":true},{"id":60,"create_date":"2021-04-06T07:42:54.002Z","update_date":"2022-11-15T10:57:55.651Z","region":1,"city":1,"address":"Րաֆֆու 83","postal_code":"0064","work_days":"10:00-17:30","work_days_break_time":null,"work_days_outside":null,"sunday":null,"saturday_break_time":null,"saturday_outside":null,"saturday":"10:00-16:00","sunday_break_time":null,"sunday_outside":null,"lat":40.1722,"long":44.4401,"status":true},{"id":61,"create_date":"2021-04-06T07:42:54.004Z","update_date":"2023-01-16T05:39:09.639Z","region":1,"city":1,"address":"Սեբաստիայի 27","postal_code":"0065","work_days":"09:00-17:30","work_days_break_time":null,"work_days_outside":null,"sunday":null,"saturday_break_time":null,"saturday_outside":null,"saturday":"10:00-16:00","sunday_break_time":null,"sunday_outside":null,"lat":40.1834,"long":44.4608,"status":true},{"id":92,"create_date":"2021-04-06T07:42:54.057Z","update_date":"2022-01-27T08:12:43.186Z","region":1,"city":1,"address":"Գայի 19","postal_code":"0066","work_days":"09:00-18:00","work_days_break_time":"13:00-14:00","work_days_outside":null,"sunday":null,"saturday_break_time":null,"saturday_outside":null,"saturday":null,"sunday_break_time":null,"sunday_outside":null,"lat":40.199006,"long":44.56799,"status":true},{"id":90,"create_date":"2021-04-06T07:42:54.054Z","update_date":"2022-01-27T08:11:04.809Z","region":1,"city":1,"address":"Կոմիտասի Պողոտա 35/2","postal_code":"0067","work_days":"09:00-18:00","work_days_break_time":"13:00-14:00","work_days_outside":null,"sunday":null,"saturday_break_time":null,"saturday_outside":null,"saturday":null,"sunday_break_time":null,"sunday_outside":null,"lat":40.207072,"long":44.508305,"status":true},{"id":62,"create_date":"2021-04-06T07:42:54.006Z","update_date":"2022-11-15T11:03:33.922Z","region":1,"city":1,"address":"Կուրղինյան 7","postal_code":"0068","work_days":"09:00-16:30","work_days_break_time":null,"work_days_outside":null,"sunday":null,"saturday_break_time":null,"saturday_outside":null,"saturday":"10:00-16:00","sunday_break_time":null,"sunday_outside":null,"lat":40.1662,"long":44.4649,"status":true},{"id":63,"create_date":"2021-04-06T07:42:54.007Z","update_date":"2022-11-15T11:05:03.628Z","region":1,"city":1,"address":"Դրոյի  15","postal_code":"0069","work_days":"09:00-20:00","work_days_break_time":null,"work_days_outside":null,"sunday":null,"saturday_break_time":null,"saturday_outside":null,"saturday":"10:00-15:00","sunday_break_time":null,"sunday_outside":null,"lat":40.204,"long":44.5422,"status":true},{"id":64,"create_date":"2021-04-06T07:42:54.010Z","update_date":"2023-03-13T06:54:02.282Z","region":1,"city":1,"address":"Երվանդ Քոչարի 1","postal_code":"0070","work_days":"09:00-17:30","work_days_break_time":null,"work_days_outside":null,"sunday":null,"saturday_break_time":null,"saturday_outside":null,"saturday":"10:00-16:00","sunday_break_time":null,"sunday_outside":null,"lat":40.1728,"long":44.5203,"status":true},{"id":65,"create_date":"2021-04-06T07:42:54.012Z","update_date":"2022-11-15T11:08:58.367Z","region":1,"city":1,"address":"Նուբարաշեն 9 Փ. 1","postal_code":"0071","work_days":"10:00-17:30","work_days_break_time":null,"work_days_outside":null,"sunday":null,"saturday_break_time":"13:00-14:00","saturday_outside":null,"saturday":"10:00-16:00","sunday_break_time":null,"sunday_outside":null,"lat":40.0896,"long":44.5495,"status":true},{"id":66,"create_date":"2021-04-06T07:42:54.014Z","update_date":"2022-11-15T11:10:01.832Z","region":1,"city":1,"address":"Նորագավիթ 1-ին փողոց, 92 շենք","postal_code":"0072","work_days":"10:00-17:30","work_days_break_time":null,"work_days_outside":null,"sunday":null,"saturday_break_time":null,"saturday_outside":null,"saturday":"10:00-16:00","sunday_break_time":null,"sunday_outside":null,"lat":40.116751,"long":44.472164,"status":true},{"id":867,"create_date":"2022-06-20T06:54:07.917Z","update_date":"2022-11-15T11:11:00.019Z","region":1,"city":1,"address":"Արա Սարգսյան 5","postal_code":"0073","work_days":"09:00-17:30","work_days_break_time":"13:00-14:00","work_days_outside":null,"sunday":null,"saturday_break_time":null,"saturday_outside":null,"saturday":null,"sunday_break_time":null,"sunday_outside":null,"lat":40.189596,"long":44.460264,"status":true},{"id":67,"create_date":"2021-04-06T07:42:54.015Z","update_date":"2022-11-15T11:11:46.113Z","region":1,"city":1,"address":"Ն.Շենգավիթ 11փ. 39շ.","postal_code":"0074","work_days":"09:00-16:30","work_days_break_time":null,"work_days_outside":null,"sunday":null,"saturday_break_time":null,"saturday_outside":null,"saturday":"10:00-16:00","sunday_break_time":null,"sunday_outside":null,"lat":40.13804,"long":44.477646,"status":true},{"id":68,"create_date":"2021-04-06T07:42:54.017Z","update_date":"2022-11-15T11:12:37.261Z","region":1,"city":1,"address":"Աթոյան Անց. 13շ","postal_code":"0075","work_days":"09:00-17:30","work_days_break_time":null,"work_days_outside":null,"sunday":null,"saturday_break_time":null,"saturday_outside":null,"saturday":"10:00-16:00","sunday_break_time":null,"sunday_outside":null,"lat":40.145846,"long":44.520948,"status":true},{"id":69,"create_date":"2021-04-06T07:42:54.018Z","update_date":"2022-11-15T11:13:20.880Z","region":1,"city":1,"address":"Նորքի 4-րդ Զ. Բակունցի 4","postal_code":"0076","work_days":"09:00-17:30","work_days_break_time":null,"work_days_outside":null,"sunday":null,"saturday_break_time":null,"saturday_outside":null,"saturday":"10:00-16:00","sunday_break_time":null,"sunday_outside":null,"lat":40.1917,"long":44.5719,"status":true},{"id":70,"create_date":"2021-04-06T07:42:54.019Z","update_date":"2022-11-15T11:14:08.482Z","region":1,"city":1,"address":"Մ.Մաշտոց 47","postal_code":"0077","work_days":"09:00-17:30","work_days_break_time":"14:00-15:00","work_days_outside":null,"sunday":null,"saturday_break_time":null,"saturday_outside":null,"saturday":null,"sunday_break_time":null,"sunday_outside":null,"lat":40.19136,"long":44.518529,"status":true},{"id":71,"create_date":"2021-04-06T07:42:54.024Z","update_date":"2023-02-14T13:24:50.025Z","region":1,"city":1,"address":"Մարգարյան 18","postal_code":"0078","work_days":"09:00-17:30","work_days_break_time":null,"work_days_outside":null,"sunday":null,"saturday_break_time":null,"saturday_outside":null,"saturday":"10:00-16:00","sunday_break_time":null,"sunday_outside":null,"lat":40.2047,"long":44.4711,"status":true},{"id":72,"create_date":"2021-04-06T07:42:54.026Z","update_date":"2022-11-15T11:15:20.822Z","region":1,"city":1,"address":"Արտեմ Միկոյանի 17","postal_code":"0079","work_days":"09:00-17:30","work_days_break_time":null,"work_days_outside":null,"sunday":null,"saturday_break_time":null,"saturday_outside":null,"saturday":"10:00-16:00","sunday_break_time":null,"sunday_outside":null,"lat":40.1827,"long":44.5681,"status":true},{"id":865,"create_date":"2022-06-20T06:43:37.733Z","update_date":"2022-06-20T08:41:23.334Z","region":1,"city":1,"address":"Խուդիակով   222      ","postal_code":"0080","work_days":"09:00-18:00","work_days_break_time":"13:00-14:00","work_days_outside":null,"sunday":null,"saturday_break_time":null,"saturday_outside":null,"saturday":null,"sunday_break_time":null,"sunday_outside":null,"lat":40.21493,"long":44.577117,"status":true},{"id":73,"create_date":"2021-04-06T07:42:54.027Z","update_date":"2022-11-15T11:17:52.072Z","region":1,"city":1,"address":"Հաղթանակ Գյուղ 6 Փող. 29","postal_code":"0081","work_days":"10:00-17:30","work_days_break_time":"14:00-15:00","work_days_outside":null,"sunday":null,"saturday_break_time":"13:00-14:00","saturday_outside":null,"saturday":"10:00-16:00","sunday_break_time":null,"sunday_outside":null,"lat":40.1864,"long":44.4252,"status":true},{"id":74,"create_date":"2021-04-06T07:42:54.029Z","update_date":"2022-11-15T11:19:01.460Z","region":1,"city":1,"address":"Ա.Իսակովի 4/2","postal_code":"0082","work_days":"09:00-16:30","work_days_break_time":null,"work_days_outside":null,"sunday":null,"saturday_break_time":null,"saturday_outside":null,"saturday":"10:00-16:00","sunday_break_time":null,"sunday_outside":null,"lat":40.1727,"long":44.4924,"status":true},{"id":866,"create_date":"2022-06-20T06:51:10.287Z","update_date":"2022-06-20T08:39:56.789Z","region":1,"city":1,"address":"Տերյան 44","postal_code":"0083","work_days":"09:00-18:00","work_days_break_time":"13:00-14:00","work_days_outside":null,"sunday":null,"saturday_break_time":null,"saturday_outside":null,"saturday":null,"sunday_break_time":null,"sunday_outside":null,"lat":40.18447,"long":44.51684,"status":true},{"id":75,"create_date":"2021-04-06T07:42:54.031Z","update_date":"2022-11-15T11:20:03.106Z","region":1,"city":1,"address":"Օգանովի 3","postal_code":"0084","work_days":"09:00-17:30","work_days_break_time":null,"work_days_outside":null,"sunday":null,"saturday_break_time":null,"saturday_outside":null,"saturday":"10:00-16:00","sunday_break_time":null,"sunday_outside":null,"lat":40.1811,"long":44.4433,"status":true},{"id":76,"create_date":"2021-04-06T07:42:54.032Z","update_date":"2022-11-15T11:20:52.909Z","region":1,"city":1,"address":"Աէրացիա, Շիրակի 5 Նրբ 7շ.","postal_code":"0085","work_days":"10:00-17:30","work_days_break_time":"13:00-14:00","work_days_outside":null,"sunday":null,"saturday_break_time":"13:00-14:00","saturday_outside":null,"saturday":"10:00-16:00","sunday_break_time":null,"sunday_outside":null,"lat":40.1424,"long":44.4371,"status":true},{"id":77,"create_date":"2021-04-06T07:42:54.034Z","update_date":"2022-11-15T11:22:05.365Z","region":1,"city":1,"address":"Շիրակի 56","postal_code":"0086","work_days":"09:00-17:30","work_days_break_time":null,"work_days_outside":null,"sunday":null,"saturday_break_time":null,"saturday_outside":null,"saturday":"10:00-16:00","sunday_break_time":null,"sunday_outside":null,"lat":40.1482,"long":44.4562,"status":true},{"id":78,"create_date":"2021-04-06T07:42:54.035Z","update_date":"2022-11-15T11:22:39.503Z","region":1,"city":1,"address":"Ավանեսովի 8/3","postal_code":"0087","work_days":"09:00-17:30","work_days_break_time":null,"work_days_outside":null,"sunday":null,"saturday_break_time":null,"saturday_outside":null,"saturday":"10:00-16:00","sunday_break_time":null,"sunday_outside":null,"lat":40.1318,"long":44.5252,"status":true},{"id":79,"create_date":"2021-04-06T07:42:54.037Z","update_date":"2022-11-15T11:23:14.672Z","region":1,"city":1,"address":"Շիրազի  32","postal_code":"0088","work_days":"09:00-17:30","work_days_break_time":null,"work_days_outside":null,"sunday":null,"saturday_break_time":null,"saturday_outside":null,"saturday":"10:00-16:00","sunday_break_time":null,"sunday_outside":null,"lat":40.2058,"long":44.462,"status":true},{"id":80,"create_date":"2021-04-06T07:42:54.038Z","update_date":"2022-11-15T11:23:59.515Z","region":1,"city":1,"address":"Ա.Քոչինյան 4","postal_code":"0089","work_days":"10:00-17:30","work_days_break_time":"13:00-14:00","work_days_outside":null,"sunday":null,"saturday_break_time":null,"saturday_outside":null,"saturday":"10:00-16:00","sunday_break_time":null,"sunday_outside":null,"lat":40.189,"long":44.5917,"status":true},{"id":81,"create_date":"2021-04-06T07:42:54.040Z","update_date":"2022-11-15T11:28:00.954Z","region":1,"city":1,"address":"Ա.Միկոյան 1","postal_code":"0090","work_days":"09:00-16:30","work_days_break_time":"13:00-14:00","work_days_outside":null,"sunday":null,"saturday_break_time":null,"saturday_outside":null,"saturday":"10:00-16:00","sunday_break_time":null,"sunday_outside":null,"lat":40.1851,"long":44.5638,"status":true},{"id":82,"create_date":"2021-04-06T07:42:54.041Z","update_date":"2022-11-15T11:29:51.556Z","region":1,"city":1,"address":"Զ.Սարկավագի 123","postal_code":"0091","work_days":"09:00-17:30","work_days_break_time":null,"work_days_outside":null,"sunday":null,"saturday_break_time":null,"saturday_outside":null,"saturday":"10:00-16:00","sunday_break_time":null,"sunday_outside":null,"lat":40.2245,"long":44.5462,"status":true},{"id":83,"create_date":"2021-04-06T07:42:54.043Z","update_date":"2022-11-15T11:32:04.040Z","region":1,"city":1,"address":"Կարախանյան 33","postal_code":"0092","work_days":"10:00-17:30","work_days_break_time":null,"work_days_outside":null,"sunday":null,"saturday_break_time":"13:00-14:00","saturday_outside":null,"saturday":"10:00-16:00","sunday_break_time":null,"sunday_outside":null,"lat":40.176533,"long":44.564314,"status":true},{"id":868,"create_date":"2022-06-29T06:17:42.893Z","update_date":"2022-07-04T12:48:14.418Z","region":1,"city":1,"address":"Հասրաթյան 9","postal_code":"0093","work_days":"09:00-17:00","work_days_break_time":null,"work_days_outside":null,"sunday":null,"saturday_break_time":null,"saturday_outside":null,"saturday":"10:00-14:00","sunday_break_time":null,"sunday_outside":null,"lat":40.214359,"long":44.536208,"status":true},{"id":85,"create_date":"2021-04-06T07:42:54.046Z","update_date":"2022-11-15T11:35:32.286Z","region":1,"city":1,"address":"Մ.Բաղրամյան 19","postal_code":"0095","work_days":"09:00-17:30","work_days_break_time":"13:00-14:00","work_days_outside":null,"sunday":null,"saturday_break_time":null,"saturday_outside":null,"saturday":null,"sunday_break_time":null,"sunday_outside":null,"lat":40.1912,"long":44.5103,"status":true},{"id":86,"create_date":"2021-04-06T07:42:54.047Z","update_date":"2022-11-15T11:36:25.568Z","region":1,"city":1,"address":"Դ.Մալյան 2","postal_code":"0096","work_days":"09:00-17:30","work_days_break_time":null,"work_days_outside":null,"sunday":null,"saturday_break_time":null,"saturday_outside":null,"saturday":"10:00-16:00","sunday_break_time":null,"sunday_outside":null,"lat":40.2069,"long":44.5636,"status":true},{"id":87,"create_date":"2021-04-06T07:42:54.049Z","update_date":"2022-11-15T11:37:13.613Z","region":1,"city":1,"address":"16 թաղ․ Նորաշեն 21","postal_code":"0097","work_days":"09:00-16:30","work_days_break_time":null,"work_days_outside":null,"sunday":null,"saturday_break_time":null,"saturday_outside":null,"saturday":"10:00-16:00","sunday_break_time":null,"sunday_outside":null,"lat":40.21513,"long":44.468736,"status":true},{"id":89,"create_date":"2021-04-06T07:42:54.052Z","update_date":"2022-11-15T11:38:08.591Z","region":1,"city":1,"address":"Շինարարների 15","postal_code":"0099","work_days":"10:00-17:30","work_days_break_time":null,"work_days_outside":null,"sunday":null,"saturday_break_time":null,"saturday_outside":null,"saturday":"10:00-16:00","sunday_break_time":null,"sunday_outside":null,"lat":40.1949,"long":44.4703,"status":true},{"id":869,"create_date":"2022-09-27T08:02:54.337Z","update_date":"2022-09-27T08:02:54.337Z","region":1,"city":1,"address":"Ավետիս Ահարոնյան 6","postal_code":"0102","work_days":"09:00-17:00","work_days_break_time":null,"work_days_outside":null,"sunday":null,"saturday_break_time":null,"saturday_outside":null,"saturday":"10:00-14:00","sunday_break_time":null,"sunday_outside":null,"lat":40.205323,"long":44.534618,"status":true},{"id":870,"create_date":"2022-09-27T08:06:29.301Z","update_date":"2022-09-27T08:06:29.301Z","region":1,"city":1,"address":"Գարեգին Նժդեհ 26","postal_code":"0103","work_days":"09:00-18:00","work_days_break_time":"13:00-14:00","work_days_outside":null,"sunday":null,"saturday_break_time":null,"saturday_outside":null,"saturday":null,"sunday_break_time":null,"sunday_outside":null,"lat":40.151598,"long":44.494023,"status":true},{"id":871,"create_date":"2022-09-27T08:09:56.372Z","update_date":"2022-09-27T08:10:33.498Z","region":1,"city":1,"address":"Սասունցի Դավիթ 87","postal_code":"0104","work_days":"09:00-18:00","work_days_break_time":"13:00-14:00","work_days_outside":null,"sunday":null,"saturday_break_time":null,"saturday_outside":null,"saturday":null,"sunday_break_time":null,"sunday_outside":null,"lat":40.154824,"long":44.522769,"status":true},{"id":872,"create_date":"2022-09-27T08:13:49.863Z","update_date":"2022-09-27T08:13:49.863Z","region":1,"city":1,"address":"Դավիթ Անհաղթ 11","postal_code":"0105","work_days":"09:00-18:00","work_days_break_time":"13:00-14:00","work_days_outside":null,"sunday":null,"saturday_break_time":null,"saturday_outside":null,"saturday":null,"sunday_break_time":null,"sunday_outside":null,"lat":40.204152,"long":44.529426,"status":true},{"id":874,"create_date":"2022-11-15T11:51:11.017Z","update_date":"2022-11-15T11:51:11.017Z","region":1,"city":1,"address":"Դավթաշեն, 3-րդ Թաղ","postal_code":"0106","work_days":"09:00-18:00","work_days_break_time":"13:00-14:00","work_days_outside":null,"sunday":null,"saturday_break_time":null,"saturday_outside":null,"saturday":null,"sunday_break_time":null,"sunday_outside":null,"lat":40.217058,"long":44.492164,"status":true},{"id":881,"create_date":"2023-04-17T06:20:50.180Z","update_date":"2023-08-25T08:04:43.526Z","region":1,"city":1,"address":"Արմենակյան փող․  272   (Նորք- Մարաշ թաղապետարան)","postal_code":"0107","work_days":"09:00-18:00","work_days_break_time":"13:00-14:00","work_days_outside":null,"sunday":null,"saturday_break_time":null,"saturday_outside":null,"saturday":null,"sunday_break_time":null,"sunday_outside":null,"lat":40.185972,"long":44.54043,"status":true},{"id":882,"create_date":"2023-04-17T06:24:02.886Z","update_date":"2023-08-25T08:05:38.604Z","region":1,"city":1,"address":"Սեբաստիա 32  (Մալաթիա-Սեբաստիա թաղապետարան)","postal_code":"0108","work_days":"09:00-18:00","work_days_break_time":"13:00-14:00","work_days_outside":null,"sunday":null,"saturday_break_time":null,"saturday_outside":null,"saturday":null,"sunday_break_time":null,"sunday_outside":null,"lat":40.178173,"long":44.458522,"status":true},{"id":94,"create_date":"2021-04-06T07:42:54.066Z","update_date":"2021-12-29T09:57:52.805Z","region":2,"city":2,"address":"Ք. Աշտարակ Սիսակյան 1","postal_code":"0201","work_days":"09:00-18:00","work_days_break_time":null,"work_days_outside":null,"sunday":null,"saturday_break_time":null,"saturday_outside":null,"saturday":"09:00-16:00","sunday_break_time":null,"sunday_outside":null,"lat":40.2965660095215,"long":44.3608741760254,"status":true},{"id":97,"create_date":"2021-04-06T07:42:54.072Z","update_date":"2023-02-14T06:15:57.185Z","region":2,"city":2,"address":"Ք. Աշտարակ Տ.Մեծի 20","postal_code":"0204","work_days":"09:00-18:00","work_days_break_time":null,"work_days_outside":null,"sunday":null,"saturday_break_time":null,"saturday_outside":null,"saturday":"09:00-16:00","sunday_break_time":null,"sunday_outside":null,"lat":40.285818,"long":44.359368,"status":true},{"id":98,"create_date":"2021-04-06T07:42:54.074Z","update_date":"2023-02-06T06:39:38.683Z","region":2,"city":2,"address":"Ք. Աշտարակ Մուղնի Թաղամաս  7/52","postal_code":"0205","work_days":"10:00-15:30","work_days_break_time":"13:00-14:00","work_days_outside":"14:00-15:00","sunday":null,"saturday_break_time":"13:00-14:00","saturday_outside":"14:00-15:00","saturday":"10:00-15:30","sunday_break_time":null,"sunday_outside":null,"lat":40.313991,"long":44.372097,"status":true},{"id":99,"create_date":"2021-04-06T07:42:54.077Z","update_date":"2021-12-29T09:58:44.237Z","region":2,"city":3,"address":"Գ. Ագարակ","postal_code":"0206","work_days":"10:00-15:30","work_days_break_time":"12:00-13:00","work_days_outside":"14:00-15:00","sunday":null,"saturday_break_time":"12:00-13:00","saturday_outside":"14:00-15:00","saturday":"10:00-15:30","sunday_break_time":null,"sunday_outside":null,"lat":40.303194,"long":44.278411,"status":true},{"id":100,"create_date":"2021-04-06T07:42:54.083Z","update_date":"2022-01-04T06:07:28.558Z","region":2,"city":4,"address":"Գ. Աղձք (Ձորափ)","postal_code":"0207","work_days":"10:00-15:30","work_days_break_time":null,"work_days_outside":null,"sunday":null,"saturday_break_time":null,"saturday_outside":null,"saturday":"10:00-15:30","sunday_break_time":null,"sunday_outside":null,"lat":40.30668,"long":44.259768,"status":true},{"id":101,"create_date":"2021-04-06T07:42:54.086Z","update_date":"2021-12-29T09:59:21.704Z","region":2,"city":5,"address":"Գ. Ավան","postal_code":"0208","work_days":"10:00-15:30","work_days_break_time":"12:00-13:00","work_days_outside":"14:00-15:00","sunday":null,"saturday_break_time":"12:00-13:00","saturday_outside":"14:00-15:00","saturday":"10:00-15:30","sunday_break_time":null,"sunday_outside":null,"lat":40.333985,"long":44.169144,"status":true},{"id":102,"create_date":"2021-04-06T07:42:54.089Z","update_date":"2021-12-29T09:59:43.110Z","region":2,"city":6,"address":"Գ. Արագածոտն","postal_code":"0209","work_days":"10:00-15:30","work_days_break_time":"12:00-13:00","work_days_outside":"14:00-15:00","sunday":null,"saturday_break_time":"12:00-13:00","saturday_outside":"14:00-15:00","saturday":"10:00-15:30","sunday_break_time":null,"sunday_outside":null,"lat":40.257178,"long":44.183796,"status":true},{"id":103,"create_date":"2021-04-06T07:42:54.092Z","update_date":"2022-01-04T06:07:28.560Z","region":2,"city":7,"address":"Գ. Արուճ","postal_code":"0210","work_days":"10:00-15:30","work_days_break_time":"12:00-13:00","work_days_outside":"14:00-15:00","sunday":null,"saturday_break_time":"12:00-13:00","saturday_outside":"14:00-15:00","saturday":"10:00-15:30","sunday_break_time":null,"sunday_outside":null,"lat":40.287847,"long":44.078983,"status":true},{"id":104,"create_date":"2021-04-06T07:42:54.095Z","update_date":"2021-12-29T10:00:27.753Z","region":2,"city":8,"address":"Գ. Բազմաղբյուր","postal_code":"0212","work_days":"10:00-15:30","work_days_break_time":"12:00-13:00","work_days_outside":"14:00-15:00","sunday":null,"saturday_break_time":"12:00-13:00","saturday_outside":"14:00-15:00","saturday":"10:00-15:30","sunday_break_time":null,"sunday_outside":null,"lat":40.336563,"long":44.316435,"status":true},{"id":105,"create_date":"2021-04-06T07:42:54.098Z","update_date":"2021-12-29T10:01:42.580Z","region":2,"city":9,"address":"Գ. Բյուրական","postal_code":"0213","work_days":"09:00-17:00","work_days_break_time":null,"work_days_outside":null,"sunday":null,"saturday_break_time":null,"saturday_outside":null,"saturday":"09:00-15:00 ","sunday_break_time":null,"sunday_outside":null,"lat":40.335759,"long":44.270443,"status":true},{"id":106,"create_date":"2021-04-06T07:42:54.102Z","update_date":"2022-01-04T06:07:28.568Z","region":2,"city":10,"address":"Գ. Կարբի","postal_code":"0214","work_days":"09:00-17:00","work_days_break_time":"13:00-14:00","work_days_outside":"15:00-16:00","sunday":null,"saturday_break_time":"13:00-14:00","saturday_outside":"14:00-15:00","saturday":"09:00-15:00 ","sunday_break_time":null,"sunday_outside":null,"lat":40.332417,"long":44.377934,"status":true},{"id":107,"create_date":"2021-04-06T07:42:54.105Z","update_date":"2022-01-04T06:07:28.578Z","region":2,"city":11,"address":"Գ. Կոշ","postal_code":"0215","work_days":"09:00-17:00","work_days_break_time":null,"work_days_outside":null,"sunday":null,"saturday_break_time":null,"saturday_outside":null,"saturday":"09:00-15:00 ","sunday_break_time":null,"sunday_outside":null,"lat":40.297313,"long":44.158588,"status":true},{"id":109,"create_date":"2021-04-06T07:42:54.112Z","update_date":"2022-01-04T06:07:28.572Z","region":2,"city":13,"address":"Գ. Շամիրամ","postal_code":"0218","work_days":"10:00-15:30","work_days_break_time":"12:00-13:00","work_days_outside":"14:00-15:00","sunday":null,"saturday_break_time":"12:00-13:00","saturday_outside":"14:00-15:00","saturday":"10:00-15:30","sunday_break_time":null,"sunday_outside":null,"lat":40.277667,"long":44.096668,"status":true},{"id":111,"create_date":"2021-04-06T07:42:54.118Z","update_date":"2022-01-04T06:07:28.582Z","region":2,"city":601,"address":"Գ. Ոսկևազ","postal_code":"0220","work_days":"09:00-17:00","work_days_break_time":null,"work_days_outside":null,"sunday":null,"saturday_break_time":null,"saturday_outside":null,"saturday":"09:00-15:00","sunday_break_time":null,"sunday_outside":null,"lat":40.276972,"long":44.296923,"status":true},{"id":112,"create_date":"2021-04-06T07:42:54.121Z","update_date":"2022-01-04T06:07:28.577Z","region":2,"city":16,"address":"Գ. Ուշի","postal_code":"0221","work_days":"09:00-17:00","work_days_break_time":"13:00-14:00","work_days_outside":"15:00-16:00","sunday":null,"saturday_break_time":"13:00-14:00","saturday_outside":"14:00-15:00","saturday":"09:00-15:00","sunday_break_time":null,"sunday_outside":null,"lat":40.349499,"long":44.375345,"status":true},{"id":113,"create_date":"2021-04-06T07:42:54.126Z","update_date":"2022-01-04T06:07:28.583Z","region":2,"city":17,"address":"Գ. Ուջան","postal_code":"0222","work_days":"09:00-17:00","work_days_break_time":"13:00-14:00","work_days_outside":"15:00-16:00","sunday":null,"saturday_break_time":"13:00-14:00","saturday_outside":"14:00-15:00","saturday":"09:00-15:00","sunday_break_time":null,"sunday_outside":null,"lat":40.298646,"long":44.203939,"status":true},{"id":114,"create_date":"2021-04-06T07:42:54.129Z","update_date":"2022-01-04T06:07:28.595Z","region":2,"city":18,"address":"Գ. Սասունիկ","postal_code":"0223","work_days":"09:00-17:00","work_days_break_time":null,"work_days_outside":null,"sunday":null,"saturday_break_time":null,"saturday_outside":null,"saturday":"09:00-15:00","sunday_break_time":null,"sunday_outside":null,"lat":40.247558,"long":44.339562,"status":true},{"id":115,"create_date":"2021-04-06T07:42:54.132Z","update_date":"2022-01-04T06:07:28.594Z","region":2,"city":19,"address":"Գ. Փարպի","postal_code":"0224","work_days":"09:00-17:00","work_days_break_time":null,"work_days_outside":null,"sunday":null,"saturday_break_time":null,"saturday_outside":null,"saturday":"09:00-15:00","sunday_break_time":null,"sunday_outside":null,"lat":40.329499,"long":44.314373,"status":true},{"id":116,"create_date":"2021-04-06T07:42:54.136Z","update_date":"2022-01-04T06:07:28.594Z","region":2,"city":20,"address":"Գ. Օհանավան","postal_code":"0225","work_days":"09:00-17:00","work_days_break_time":"13:00-14:00","work_days_outside":"15:00-16:00","sunday":null,"saturday_break_time":"13:00-14:00","saturday_outside":"14:00-15:00","saturday":"09:00-15:00","sunday_break_time":null,"sunday_outside":null,"lat":40.346044,"long":44.38322,"status":true},{"id":117,"create_date":"2021-04-06T07:42:54.139Z","update_date":"2022-01-04T06:07:28.600Z","region":2,"city":21,"address":"Գ. Օշական","postal_code":"0226","work_days":"09:00-17:00","work_days_break_time":null,"work_days_outside":null,"sunday":null,"saturday_break_time":null,"saturday_outside":null,"saturday":"09:00-15:00 ","sunday_break_time":null,"sunday_outside":null,"lat":40.264971,"long":44.317815,"status":true},{"id":118,"create_date":"2021-04-06T07:42:54.141Z","update_date":"2022-01-04T06:07:28.594Z","region":2,"city":22,"address":"Ք. Աշտարակ Ներսես Աշտարեկացու 4/1","postal_code":"0227","work_days":"09:00-18:00","work_days_break_time":"13:00-14:00","work_days_outside":"15:00-16:00","sunday":null,"saturday_break_time":null,"saturday_outside":null,"saturday":null,"sunday_break_time":null,"sunday_outside":null,"lat":40.297423,"long":44.360048,"status":true},{"id":119,"create_date":"2021-04-06T07:42:54.144Z","update_date":"2022-01-04T06:07:28.601Z","region":2,"city":23,"address":"Ք. Ապարան, Բաղրամյան  53","postal_code":"0301","work_days":"09:00-17:00","work_days_break_time":null,"work_days_outside":null,"sunday":null,"saturday_break_time":null,"saturday_outside":null,"saturday":"09:00-15:00 ","sunday_break_time":null,"sunday_outside":null,"lat":40.59054,"long":44.557467,"status":true},{"id":122,"create_date":"2021-04-06T07:42:54.153Z","update_date":"2022-01-04T06:07:28.613Z","region":2,"city":26,"address":"Գ. Նիգավան","postal_code":"0307","work_days":"10:00-15:30","work_days_break_time":"12:00-13:00","work_days_outside":"14:00-15:00","sunday":null,"saturday_break_time":"12:00-13:00","saturday_outside":"14:00-15:00","saturday":"10:00-15:30","sunday_break_time":null,"sunday_outside":null,"lat":40.616845,"long":44.299973,"status":true},{"id":123,"create_date":"2021-04-06T07:42:54.156Z","update_date":"2022-01-04T06:07:28.617Z","region":2,"city":27,"address":"Գ. Շենավան","postal_code":"0308","work_days":"10:00-15:30","work_days_break_time":"12:00-13:00","work_days_outside":"14:00-15:00","sunday":null,"saturday_break_time":"12:00-13:00","saturday_outside":"14:00-15:00","saturday":"10:00-15:30","sunday_break_time":null,"sunday_outside":null,"lat":40.4837341308594,"long":44.3819808959961,"status":true},{"id":124,"create_date":"2021-04-06T07:42:54.158Z","update_date":"2022-01-04T06:07:28.611Z","region":2,"city":28,"address":"Գ. Վարդենիս","postal_code":"0309","work_days":"10:00-15:30","work_days_break_time":"12:00-13:00","work_days_outside":"14:00-15:00","sunday":null,"saturday_break_time":"12:00-13:00","saturday_outside":"14:00-15:00","saturday":"10:00-15:30","sunday_break_time":null,"sunday_outside":null,"lat":40.568817,"long":44.39015,"status":true},{"id":125,"create_date":"2021-04-06T07:42:54.161Z","update_date":"2022-01-04T06:07:28.618Z","region":2,"city":29,"address":"Գ. Քուչակ","postal_code":"0311","work_days":"09:00-17:00","work_days_break_time":null,"work_days_outside":null,"sunday":null,"saturday_break_time":null,"saturday_outside":null,"saturday":"09:00-15:00 ","sunday_break_time":null,"sunday_outside":null,"lat":40.518985748291,"long":44.3901481628418,"status":true},{"id":126,"create_date":"2021-04-06T07:42:54.164Z","update_date":"2022-01-04T06:07:28.619Z","region":2,"city":30,"address":"Գ. Ծաղկահովիտ","postal_code":"0401","work_days":"10:00 -18:00","work_days_break_time":null,"work_days_outside":null,"sunday":null,"saturday_break_time":null,"saturday_outside":null,"saturday":"10:00-16:00","sunday_break_time":null,"sunday_outside":null,"lat":40.640057,"long":44.222802,"status":true},{"id":127,"create_date":"2021-04-06T07:42:54.169Z","update_date":"2022-01-04T06:07:28.632Z","region":2,"city":31,"address":"Գ. Ալագյազ","postal_code":"0402","work_days":"10:30 - 16:00","work_days_break_time":"13:00-14:00","work_days_outside":"14:00-15:00","sunday":null,"saturday_break_time":"13:00-14:00","saturday_outside":"14:00-15:00","saturday":"10:30-16:00","sunday_break_time":null,"sunday_outside":null,"lat":40.67967,"long":44.288768,"status":true},{"id":128,"create_date":"2021-04-06T07:42:54.173Z","update_date":"2022-01-04T06:07:28.636Z","region":2,"city":32,"address":"Գ. Ավշեն","postal_code":"0403","work_days":"10:30 - 16:00","work_days_break_time":"13:00-14:00","work_days_outside":"14:00-15:00","sunday":null,"saturday_break_time":"13:00-14:00","saturday_outside":"14:00-15:00","saturday":"10:30-16:00","sunday_break_time":null,"sunday_outside":null,"lat":40.720887,"long":44.27063,"status":true},{"id":129,"create_date":"2021-04-06T07:42:54.176Z","update_date":"2022-01-04T06:07:28.641Z","region":2,"city":33,"address":"Գ. Բերքառատ","postal_code":"0404","work_days":"10:30 - 16:00","work_days_break_time":"13:00-14:00","work_days_outside":"14:00-15:00","sunday":null,"saturday_break_time":"13:00-14:00","saturday_outside":"14:00-15:00","saturday":"10:30-16:00","sunday_break_time":null,"sunday_outside":null,"lat":40.674887,"long":44.164818,"status":true},{"id":131,"create_date":"2021-04-06T07:42:54.182Z","update_date":"2022-01-04T06:07:28.633Z","region":2,"city":35,"address":"Գ. Գեղարոտ","postal_code":"0406","work_days":"10:30 - 16:00","work_days_break_time":"13:00-14:00","work_days_outside":"14:00-15:00","sunday":null,"saturday_break_time":"13:00-14:00","saturday_outside":"14:00-15:00","saturday":"10:30-16:00","sunday_break_time":null,"sunday_outside":null,"lat":40.704488,"long":44.218712,"status":true},{"id":132,"create_date":"2021-04-06T07:42:54.185Z","update_date":"2022-01-04T06:07:28.646Z","region":2,"city":36,"address":"Գ. Դերեկ (Ճարճակիս)","postal_code":"0407","work_days":"10:30 - 16:00","work_days_break_time":"13:00-14:00","work_days_outside":"14:00-15:00","sunday":null,"saturday_break_time":"13:00-14:00","saturday_outside":"14:00-15:00","saturday":"10:30-16:00","sunday_break_time":null,"sunday_outside":null,"lat":40.696445,"long":44.322412,"status":true},{"id":133,"create_date":"2021-04-06T07:42:54.188Z","update_date":"2022-01-04T06:07:28.643Z","region":2,"city":37,"address":"Գ. Ծիլքար","postal_code":"0408","work_days":"10:30 - 16:00","work_days_break_time":"13:00-14:00","work_days_outside":"14:00-15:00","sunday":null,"saturday_break_time":"13:00-14:00","saturday_outside":"14:00-15:00","saturday":"10:30-16:00","sunday_break_time":null,"sunday_outside":null,"lat":40.71864,"long":44.206537,"status":true},{"id":134,"create_date":"2021-04-06T07:42:54.191Z","update_date":"2022-01-04T06:07:28.653Z","region":2,"city":38,"address":"Գ. Հնաբերդ","postal_code":"0409","work_days":"10:30 - 16:00","work_days_break_time":"13:00-14:00","work_days_outside":"14:00-15:00","sunday":null,"saturday_break_time":"13:00-14:00","saturday_outside":"14:00-15:00","saturday":"10:30-16:00","sunday_break_time":null,"sunday_outside":null,"lat":40.638315,"long":44.140392,"status":true},{"id":135,"create_date":"2021-04-06T07:42:54.194Z","update_date":"2022-01-04T06:07:28.665Z","region":2,"city":39,"address":"Գ. Մելիքգյուղ","postal_code":"0410","work_days":"10:30 - 16:00","work_days_break_time":"13:00-14:00","work_days_outside":"14:00-15:00","sunday":null,"saturday_break_time":"13:00-14:00","saturday_outside":"14:00-15:00","saturday":"10:30-16:00","sunday_break_time":null,"sunday_outside":null,"lat":40.665135,"long":44.355207,"status":true},{"id":136,"create_date":"2021-04-06T07:42:54.198Z","update_date":"2022-01-04T06:07:28.656Z","region":2,"city":40,"address":"Գ. Նորաշեն","postal_code":"0411","work_days":"10:30 - 16:00","work_days_break_time":"13:00-14:00","work_days_outside":"14:00-15:00","sunday":null,"saturday_break_time":"13:00-14:00","saturday_outside":"14:00-15:00","saturday":"10:30-16:00","sunday_break_time":null,"sunday_outside":null,"lat":40.657158,"long":44.075642,"status":true},{"id":138,"create_date":"2021-04-06T07:42:54.204Z","update_date":"2022-01-04T06:07:28.656Z","region":2,"city":42,"address":"Ք. Թալին, Սպանդարյան 7","postal_code":"0501","work_days":"09:00-17:00","work_days_break_time":null,"work_days_outside":null,"sunday":null,"saturday_break_time":null,"saturday_outside":null,"saturday":"09:00-15:00 ","sunday_break_time":null,"sunday_outside":null,"lat":40.384002,"long":43.875255,"status":true},{"id":139,"create_date":"2021-04-06T07:42:54.207Z","update_date":"2022-01-04T06:07:28.684Z","region":2,"city":43,"address":"Գ. Աշնակ","postal_code":"0502","work_days":"10:00-15:30","work_days_break_time":"12:00-13:00","work_days_outside":"14:00-15:00","sunday":null,"saturday_break_time":"12:00-13:00","saturday_outside":"14:00-15:00","saturday":"10:00-15:30","sunday_break_time":null,"sunday_outside":null,"lat":40.379018,"long":43.944533,"status":true},{"id":140,"create_date":"2021-04-06T07:42:54.211Z","update_date":"2022-01-04T06:07:28.683Z","region":2,"city":44,"address":"Գ. Արագածավան","postal_code":"0503","work_days":"09:00-17:00","work_days_break_time":null,"work_days_outside":null,"sunday":null,"saturday_break_time":null,"saturday_outside":null,"saturday":"09:00-15:00 ","sunday_break_time":null,"sunday_outside":null,"lat":40.297288,"long":43.76464,"status":true},{"id":141,"create_date":"2021-04-06T07:42:54.214Z","update_date":"2022-01-04T06:07:28.690Z","region":2,"city":45,"address":"Գ. Թաթուլ","postal_code":"0504","work_days":"09:00-17:00","work_days_break_time":"13:00-14:00","work_days_outside":"15:00-16:00","sunday":null,"saturday_break_time":"13:00-14:00","saturday_outside":"14:00-15:00","saturday":"09:00-15:00","sunday_break_time":null,"sunday_outside":null,"lat":40.393382,"long":43.813932,"status":true},{"id":142,"create_date":"2021-04-06T07:42:54.217Z","update_date":"2022-01-04T06:07:28.681Z","region":2,"city":46,"address":"Գ. Արտենի","postal_code":"0505","work_days":"09:00-17:00","work_days_break_time":null,"work_days_outside":null,"sunday":null,"saturday_break_time":null,"saturday_outside":null,"saturday":"09:00-15:00","sunday_break_time":null,"sunday_outside":null,"lat":40.298103,"long":43.764642,"status":true},{"id":143,"create_date":"2021-04-06T07:42:54.220Z","update_date":"2022-01-04T12:41:13.229Z","region":2,"city":47,"address":"Գ. Կաթնաղբյուր","postal_code":"0507","work_days":"09:00-17:00","work_days_break_time":null,"work_days_outside":null,"sunday":null,"saturday_break_time":null,"saturday_outside":null,"saturday":"09:00-15:00","sunday_break_time":null,"sunday_outside":null,"lat":40.379173,"long":43.944778,"status":true},{"id":144,"create_date":"2021-04-06T07:42:54.223Z","update_date":"2022-01-04T06:07:28.691Z","region":2,"city":48,"address":"Գ. Կարմրաշեն","postal_code":"0508","work_days":"10:00-15:30","work_days_break_time":"12:00-13:00","work_days_outside":"14:00-15:00","sunday":null,"saturday_break_time":"12:00-13:00","saturday_outside":"14:00-15:00","saturday":"10:00-15:30","sunday_break_time":null,"sunday_outside":null,"lat":40.384347,"long":43.945248,"status":true},{"id":145,"create_date":"2021-04-06T07:42:54.226Z","update_date":"2022-01-04T06:07:28.691Z","region":2,"city":49,"address":"Գ. Կաքավաձոր","postal_code":"0509","work_days":"10:00-15:30","work_days_break_time":"12:00-13:00","work_days_outside":"14:00-15:00","sunday":null,"saturday_break_time":"12:00-13:00","saturday_outside":"14:00-15:00","saturday":"10:00-15:30","sunday_break_time":null,"sunday_outside":null,"lat":40.349255,"long":44.05176,"status":true},{"id":146,"create_date":"2021-04-06T07:42:54.228Z","update_date":"2022-01-04T06:07:28.705Z","region":2,"city":50,"address":"Գ. Մաստարա","postal_code":"0511","work_days":"09:00-17:00","work_days_break_time":null,"work_days_outside":null,"sunday":null,"saturday_break_time":null,"saturday_outside":null,"saturday":"09:00-15:00","sunday_break_time":null,"sunday_outside":null,"lat":40.448168,"long":43.879373,"status":true},{"id":147,"create_date":"2021-04-06T07:42:54.231Z","update_date":"2022-01-04T07:07:55.838Z","region":2,"city":651,"address":"Գ.  Ն.Բազմաբերդ","postal_code":"0512","work_days":"09:00-17:00","work_days_break_time":null,"work_days_outside":null,"sunday":null,"saturday_break_time":null,"saturday_outside":null,"saturday":"09:00-15:00","sunday_break_time":null,"sunday_outside":null,"lat":40.346755,"long":44.052233,"status":true},{"id":148,"create_date":"2021-04-06T07:42:54.233Z","update_date":"2022-01-04T07:08:13.311Z","region":2,"city":603,"address":"Գ.  Ն.Սասնաշեն","postal_code":"0513","work_days":"09:00-17:00","work_days_break_time":null,"work_days_outside":null,"sunday":null,"saturday_break_time":null,"saturday_outside":null,"saturday":"09:00-15:00","sunday_break_time":null,"sunday_outside":null,"lat":40.357538,"long":43.985325,"status":true},{"id":149,"create_date":"2021-04-06T07:42:54.236Z","update_date":"2022-01-04T06:07:28.710Z","region":2,"city":53,"address":"Գ. Ցամաքասար","postal_code":"0514","work_days":"10:00-15:30","work_days_break_time":null,"work_days_outside":null,"sunday":null,"saturday_break_time":null,"saturday_outside":null,"saturday":"10:00-15:30","sunday_break_time":null,"sunday_outside":null,"lat":40.4668,"long":43.763335,"status":true},{"id":150,"create_date":"2021-04-06T07:42:54.240Z","update_date":"2022-01-04T06:07:28.720Z","region":3,"city":54,"address":"Ք. Վեդի, Արարատյան 59","postal_code":"0601","work_days":"09:00-17:00","work_days_break_time":null,"work_days_outside":null,"sunday":null,"saturday_break_time":null,"saturday_outside":null,"saturday":"09:00-15:00","sunday_break_time":null,"sunday_outside":null,"lat":39.914227,"long":44.72331,"status":true},{"id":151,"create_date":"2021-04-06T07:42:54.242Z","update_date":"2022-01-04T06:07:28.724Z","region":3,"city":55,"address":"Ք. Արարատ, Շահումյան 32","postal_code":"0602","work_days":"09:00-17:00","work_days_break_time":null,"work_days_outside":null,"sunday":null,"saturday_break_time":null,"saturday_outside":null,"saturday":"09:00-15:00","sunday_break_time":null,"sunday_outside":null,"lat":39.854475,"long":44.694693,"status":true},{"id":152,"create_date":"2021-04-06T07:42:54.244Z","update_date":"2022-01-04T12:20:08.523Z","region":3,"city":55,"address":"Ք. Արարատ,արարատյան Զ.1","postal_code":"0603","work_days":"09:00-17:00","work_days_break_time":"13:00-14:00","work_days_outside":"14:00-15:00","sunday":null,"saturday_break_time":"13:00-14:00","saturday_outside":"14:00-15:00","saturday":"09:00-15:00","sunday_break_time":null,"sunday_outside":null,"lat":39.829554,"long":44.715338,"status":true},{"id":153,"create_date":"2021-04-06T07:42:54.246Z","update_date":"2022-01-04T06:07:28.724Z","region":3,"city":56,"address":"Գ. Այգավան","postal_code":"0604","work_days":"09:00-17:00","work_days_break_time":null,"work_days_outside":null,"sunday":null,"saturday_break_time":null,"saturday_outside":null,"saturday":"09:00-15:00","sunday_break_time":null,"sunday_outside":null,"lat":39.87324,"long":44.668443,"status":true},{"id":154,"create_date":"2021-04-06T07:42:54.251Z","update_date":"2022-01-04T06:07:28.722Z","region":3,"city":57,"address":"Գ. Ավշար","postal_code":"0605","work_days":"09:00-17:00","work_days_break_time":null,"work_days_outside":null,"sunday":null,"saturday_break_time":null,"saturday_outside":null,"saturday":"09:00-15:00","sunday_break_time":null,"sunday_outside":null,"lat":39.854158,"long":44.660034,"status":true},{"id":155,"create_date":"2021-04-06T07:42:54.253Z","update_date":"2022-01-04T06:07:28.733Z","region":3,"city":58,"address":"Գ. Արալեզ","postal_code":"0606","work_days":"10:00-15:30","work_days_break_time":"13:00-14:00","work_days_outside":"14:00-15:00","sunday":null,"saturday_break_time":"13:00-14:00","saturday_outside":"14:00-15:00","saturday":"10:00-15:30","sunday_break_time":null,"sunday_outside":null,"lat":39.900018,"long":44.654624,"status":true},{"id":156,"create_date":"2021-04-06T07:42:54.255Z","update_date":"2022-01-04T06:07:28.732Z","region":3,"city":55,"address":"Գ. Արարատ","postal_code":"0607","work_days":"09:00-17:00","work_days_break_time":null,"work_days_outside":null,"sunday":null,"saturday_break_time":null,"saturday_outside":null,"saturday":"09:00-15:00","sunday_break_time":null,"sunday_outside":null,"lat":39.836107,"long":44.706295,"status":true},{"id":157,"create_date":"2021-04-06T07:42:54.257Z","update_date":"2022-01-04T06:07:28.730Z","region":3,"city":59,"address":"Գ. Գոռավան","postal_code":"0608","work_days":"10:00-15:30","work_days_break_time":"13:00-14:00","work_days_outside":"14:00-15:00","sunday":null,"saturday_break_time":"13:00-14:00","saturday_outside":"14:00-15:00","saturday":"10:00-15:30","sunday_break_time":null,"sunday_outside":null,"lat":39.907773,"long":44.730523,"status":true},{"id":158,"create_date":"2021-04-06T07:42:54.260Z","update_date":"2022-01-04T06:07:28.733Z","region":3,"city":60,"address":"Գ. Երասխ","postal_code":"0609","work_days":"10:00-15:30","work_days_break_time":"13:00-14:00","work_days_outside":"14:00-15:00","sunday":null,"saturday_break_time":"13:00-14:00","saturday_outside":"14:00-15:00","saturday":"10:00-15:30","sunday_break_time":null,"sunday_outside":null,"lat":39.742533,"long":44.827733,"status":true},{"id":159,"create_date":"2021-04-06T07:42:54.263Z","update_date":"2022-01-04T06:07:28.744Z","region":3,"city":61,"address":"Գ. Զանգակատուն","postal_code":"0610","work_days":"09:00-17:00","work_days_break_time":"13:00-14:00","work_days_outside":"15:00-16:30","sunday":null,"saturday_break_time":"13:00-14:00","saturday_outside":"12:00-13:00","saturday":"09:00-15:00","sunday_break_time":null,"sunday_outside":null,"lat":39.82098,"long":45.041762,"status":true},{"id":160,"create_date":"2021-04-06T07:42:54.266Z","update_date":"2022-01-04T06:07:28.743Z","region":3,"city":62,"address":"Գ. Լուսաշող","postal_code":"0611","work_days":"09:00-17:00","work_days_break_time":null,"work_days_outside":null,"sunday":null,"saturday_break_time":null,"saturday_outside":null,"saturday":"09:00-15:00","sunday_break_time":null,"sunday_outside":null,"lat":39.849789,"long":44.976892,"status":true},{"id":161,"create_date":"2021-04-06T07:42:54.270Z","update_date":"2022-01-04T06:07:28.747Z","region":3,"city":63,"address":"Գ. Լուսառատ","postal_code":"0612","work_days":"10:00-15:30","work_days_break_time":"13:00-14:00","work_days_outside":"11:30-12:30","sunday":null,"saturday_break_time":"13:00-14:00","saturday_outside":"11:30-12:30","saturday":"10:00-15:30","sunday_break_time":null,"sunday_outside":null,"lat":39.873795,"long":44.589927,"status":true},{"id":162,"create_date":"2021-04-06T07:42:54.274Z","update_date":"2022-01-04T06:07:28.747Z","region":3,"city":64,"address":"Գ. Նոյակերտ","postal_code":"0613","work_days":"10:00-15:30","work_days_break_time":"13:00-14:00","work_days_outside":"14:00-15:00","sunday":null,"saturday_break_time":"13:00-14:00","saturday_outside":"14:00-15:00","saturday":"10:00-15:30","sunday_break_time":null,"sunday_outside":null,"lat":39.831251,"long":44.665196,"status":true},{"id":163,"create_date":"2021-04-06T07:42:54.278Z","update_date":"2022-01-04T06:07:28.757Z","region":3,"city":65,"address":"Գ. Նոր Կյանք","postal_code":"0614","work_days":"09:00-17:00","work_days_break_time":null,"work_days_outside":null,"sunday":null,"saturday_break_time":null,"saturday_outside":null,"saturday":"09:00-15:00","sunday_break_time":null,"sunday_outside":null,"lat":39.902568,"long":44.628792,"status":true},{"id":164,"create_date":"2021-04-06T07:42:54.281Z","update_date":"2022-01-04T06:07:28.756Z","region":3,"city":66,"address":"Գ. Նոր Ուղի","postal_code":"0615","work_days":"10:00-15:30","work_days_break_time":"13:00-14:00","work_days_outside":"11:30-12:30","sunday":null,"saturday_break_time":"13:00-14:00","saturday_outside":"11:30-12:30","saturday":"10:00-15:30","sunday_break_time":null,"sunday_outside":null,"lat":39.926066,"long":44.637488,"status":true},{"id":165,"create_date":"2021-04-06T07:42:54.285Z","update_date":"2022-01-04T06:07:28.757Z","region":3,"city":67,"address":"Գ. Ոսկետափ","postal_code":"0617","work_days":"09:00-17:00","work_days_break_time":null,"work_days_outside":null,"sunday":null,"saturday_break_time":null,"saturday_outside":null,"saturday":"09:00-15:00","sunday_break_time":null,"sunday_outside":null,"lat":39.882363,"long":44.647658,"status":true},{"id":166,"create_date":"2021-04-06T07:42:54.288Z","update_date":"2022-01-04T06:07:28.763Z","region":3,"city":68,"address":"Գ. Ուրցաձոր","postal_code":"0618","work_days":"09:00-17:00","work_days_break_time":null,"work_days_outside":null,"sunday":null,"saturday_break_time":null,"saturday_outside":null,"saturday":"09:00-15:00","sunday_break_time":null,"sunday_outside":null,"lat":39.917683,"long":44.823939,"status":true},{"id":167,"create_date":"2021-04-06T07:42:54.291Z","update_date":"2022-01-04T06:07:28.768Z","region":3,"city":69,"address":"Գ. Պարույր Սևակ","postal_code":"0619","work_days":"10:00-15:30","work_days_break_time":"13:00-14:00","work_days_outside":"11:30-12:30","sunday":null,"saturday_break_time":"13:00-14:00","saturday_outside":"11:30-12:30","saturday":"10:00-15:30","sunday_break_time":null,"sunday_outside":null,"lat":39.772031,"long":44.917039,"status":true},{"id":168,"create_date":"2021-04-06T07:42:54.295Z","update_date":"2022-01-04T06:07:28.764Z","region":3,"city":70,"address":"Գ. Սիսավան","postal_code":"0620","work_days":"10:00-15:30","work_days_break_time":"13:00-14:00","work_days_outside":"11:30-12:30","sunday":null,"saturday_break_time":"13:00-14:00","saturday_outside":"11:30-12:30","saturday":"10:00-15:30","sunday_break_time":null,"sunday_outside":null,"lat":39.907475,"long":44.668158,"status":true},{"id":169,"create_date":"2021-04-06T07:42:54.298Z","update_date":"2022-01-04T06:07:28.786Z","region":3,"city":71,"address":"Գ. Սուրենավան","postal_code":"0621","work_days":"09:00-17:00","work_days_break_time":null,"work_days_outside":null,"sunday":null,"saturday_break_time":null,"saturday_outside":null,"saturday":"09:00-15:00","sunday_break_time":null,"sunday_outside":null,"lat":39.797264,"long":44.774971,"status":true},{"id":170,"create_date":"2021-04-06T07:42:54.301Z","update_date":"2022-01-04T06:07:28.771Z","region":3,"city":72,"address":"Գ. Վանաշեն","postal_code":"0622","work_days":"10:00-15:30","work_days_break_time":"13:00-14:00","work_days_outside":"11:30-12:30","sunday":null,"saturday_break_time":"13:00-14:00","saturday_outside":"11:30-12:30","saturday":"10:00-15:30","sunday_break_time":null,"sunday_outside":null,"lat":39.89684,"long":44.68727,"status":true},{"id":171,"create_date":"2021-04-06T07:42:54.303Z","update_date":"2022-01-04T06:07:28.771Z","region":3,"city":73,"address":"Գ. Փոքր Վեդի","postal_code":"0623","work_days":"09:00-17:00","work_days_break_time":null,"work_days_outside":null,"sunday":null,"saturday_break_time":null,"saturday_outside":null,"saturday":"09:00-15:00","sunday_break_time":null,"sunday_outside":null,"lat":39.903001,"long":44.60287,"status":true},{"id":172,"create_date":"2021-04-06T07:42:54.306Z","update_date":"2022-01-04T06:07:28.791Z","region":3,"city":74,"address":"Գ. Արմաշ","postal_code":"0624","work_days":"09:00-17:00","work_days_break_time":"13:00-14:00","work_days_outside":"14:00-15:00","sunday":null,"saturday_break_time":"13:00-14:00","saturday_outside":"14:00-15:00","saturday":"10:00-15:30","sunday_break_time":null,"sunday_outside":null,"lat":39.765269,"long":44.808796,"status":true},{"id":173,"create_date":"2021-04-06T07:42:54.309Z","update_date":"2022-01-04T06:07:28.789Z","region":3,"city":75,"address":"Գ. Դաշտաքար","postal_code":"0625","work_days":"10:00-15:30","work_days_break_time":"13:00-14:00","work_days_outside":"11:30-12:30","sunday":null,"saturday_break_time":"13:00-14:00","saturday_outside":"11:30-12:30","saturday":"10:00-15:30","sunday_break_time":null,"sunday_outside":null,"lat":39.92354,"long":44.754668,"status":true},{"id":174,"create_date":"2021-04-06T07:42:54.311Z","update_date":"2022-01-04T06:07:28.792Z","region":3,"city":76,"address":"Գ. Եղեգնավան","postal_code":"0626","work_days":"10:00-15:30","work_days_break_time":"13:00-14:00","work_days_outside":"11:30-12:30","sunday":null,"saturday_break_time":"13:00-14:00","saturday_outside":"11:30-12:30","saturday":"10:00-15:30","sunday_break_time":null,"sunday_outside":null,"lat":39.838448,"long":44.625642,"status":true},{"id":175,"create_date":"2021-04-06T07:42:54.314Z","update_date":"2022-01-04T06:07:28.804Z","region":3,"city":606,"address":"Գ. Գինևետ","postal_code":"0627","work_days":"10:00-15:30","work_days_break_time":"13:00-14:00","work_days_outside":"11:30-12:30","sunday":null,"saturday_break_time":"13:00-14:00","saturday_outside":"11:30-12:30","saturday":"10:00-15:30","sunday_break_time":null,"sunday_outside":null,"lat":39.93224,"long":44.62486,"status":true},{"id":176,"create_date":"2021-04-06T07:42:54.317Z","update_date":"2022-01-04T06:07:28.822Z","region":3,"city":78,"address":"Գ. Տափերական","postal_code":"0628","work_days":"09:00-17:00","work_days_break_time":null,"work_days_outside":null,"sunday":null,"saturday_break_time":null,"saturday_outside":null,"saturday":"09:00-15:00","sunday_break_time":null,"sunday_outside":null,"lat":39.923161,"long":44.595633,"status":true},{"id":177,"create_date":"2021-04-06T07:42:54.338Z","update_date":"2022-02-09T12:24:11.501Z","region":3,"city":79,"address":"ք.Արտաշատ,Օգոստոսի 23, 97շ","postal_code":"0701","work_days":"9:00-18:00","work_days_break_time":null,"work_days_outside":null,"sunday":null,"saturday_break_time":null,"saturday_outside":null,"saturday":"9:00-16:00","sunday_break_time":null,"sunday_outside":null,"lat":39.956555,"long":44.545422,"status":true},{"id":178,"create_date":"2021-04-06T07:42:54.341Z","update_date":"2022-01-04T06:07:28.815Z","region":3,"city":79,"address":"Ք. Արտաշատ, Օգոստոսի 23, 22շ","postal_code":"0703","work_days":"9:00-17:00","work_days_break_time":null,"work_days_outside":null,"sunday":null,"saturday_break_time":null,"saturday_outside":null,"saturday":"9:00-15:00","sunday_break_time":null,"sunday_outside":null,"lat":39.961742,"long":44.537539,"status":true},{"id":179,"create_date":"2021-04-06T07:42:54.343Z","update_date":"2022-01-04T06:07:28.816Z","region":3,"city":79,"address":"Ք. Արտաշատ, Իսակովի 68","postal_code":"0705","work_days":"9:00-18:00","work_days_break_time":null,"work_days_outside":null,"sunday":null,"saturday_break_time":null,"saturday_outside":null,"saturday":"9:00-16:00","sunday_break_time":null,"sunday_outside":null,"lat":39.951576,"long":44.551337,"status":true},{"id":182,"create_date":"2021-04-06T07:42:54.352Z","update_date":"2022-01-04T12:18:55.535Z","region":3,"city":81,"address":"Գ. Ազատավան","postal_code":"0708","work_days":"09:00-17:00","work_days_break_time":"13:00-14:00","work_days_outside":"14:00-15:00","sunday":null,"saturday_break_time":"13:00-14:00","saturday_outside":"14:00-15:00","saturday":"09:00-15:00","sunday_break_time":null,"sunday_outside":null,"lat":39.981807,"long":44.506376,"status":true},{"id":183,"create_date":"2021-04-06T07:42:54.355Z","update_date":"2022-01-04T06:07:28.837Z","region":3,"city":82,"address":"Գ. Այգեզարդ","postal_code":"0709","work_days":"10:00-15:30","work_days_break_time":"13:00-14:00","work_days_outside":"14:00-15:00","sunday":null,"saturday_break_time":"13:00-14:00","saturday_outside":"14:00-15:00","saturday":"10:00-15:30","sunday_break_time":null,"sunday_outside":null,"lat":39.955216,"long":44.601506,"status":true},{"id":184,"create_date":"2021-04-06T07:42:54.358Z","update_date":"2022-01-04T06:07:28.844Z","region":3,"city":83,"address":"Գ. Այգեպատ","postal_code":"0710","work_days":"10:00-15:30","work_days_break_time":"13:00-14:00","work_days_outside":"14:00-15:00","sunday":null,"saturday_break_time":"13:00-14:00","saturday_outside":"11:30-12:30","saturday":"10:00-15:30","sunday_break_time":null,"sunday_outside":null,"lat":39.955401,"long":44.596077,"status":true},{"id":185,"create_date":"2021-04-06T07:42:54.361Z","update_date":"2022-01-04T12:17:10.275Z","region":3,"city":84,"address":"Գ. Այգեստան","postal_code":"0711","work_days":"09:00-17:00","work_days_break_time":null,"work_days_outside":null,"sunday":null,"saturday_break_time":null,"saturday_outside":null,"saturday":"09:00-15:00","sunday_break_time":null,"sunday_outside":null,"lat":40.002032,"long":44.559771,"status":true},{"id":186,"create_date":"2021-04-06T07:42:54.365Z","update_date":"2022-01-04T06:07:28.837Z","region":3,"city":85,"address":"Գ. Արևշատ","postal_code":"0712","work_days":"09:00-17:00","work_days_break_time":null,"work_days_outside":null,"sunday":null,"saturday_break_time":null,"saturday_outside":null,"saturday":"09:00-15:00 ","sunday_break_time":null,"sunday_outside":null,"lat":40.03852,"long":44.542496,"status":true},{"id":187,"create_date":"2021-04-06T07:42:54.369Z","update_date":"2022-01-04T06:07:28.850Z","region":3,"city":86,"address":"Գ. Բաղրամյան","postal_code":"0713","work_days":"10:00-15:30","work_days_break_time":"13:00-14:00","work_days_outside":"14:00-15:00","sunday":null,"saturday_break_time":"13:00-14:00","saturday_outside":"14:00-15:00","saturday":"10:00-15:30","sunday_break_time":null,"sunday_outside":null,"lat":39.979958,"long":44.512049,"status":true},{"id":188,"create_date":"2021-04-06T07:42:54.372Z","update_date":"2022-01-04T06:07:28.851Z","region":3,"city":87,"address":"Գ. Բարձրաշեն","postal_code":"0714","work_days":"10:00-15:30","work_days_break_time":"13:00-14:00","work_days_outside":"14:00-15:00","sunday":null,"saturday_break_time":"13:00-14:00","saturday_outside":"14:00-15:00","saturday":"10:00-15:30","sunday_break_time":null,"sunday_outside":null,"lat":40.081377,"long":44.577503,"status":true},{"id":189,"create_date":"2021-04-06T07:42:54.376Z","update_date":"2022-01-04T06:07:28.867Z","region":3,"city":88,"address":"Գ. Բերդիկ","postal_code":"0715","work_days":"10:00-15:30","work_days_break_time":"13:00-14:00","work_days_outside":"14:00-15:00","sunday":null,"saturday_break_time":"13:00-14:00","saturday_outside":"11:30-12:30","saturday":"10:00-15:30","sunday_break_time":null,"sunday_outside":null,"lat":39.993286,"long":44.572783,"status":true},{"id":190,"create_date":"2021-04-06T07:42:54.379Z","update_date":"2022-01-04T06:07:28.855Z","region":3,"city":89,"address":"Գ. Բերքանուշ","postal_code":"0716","work_days":"10:00-15:30","work_days_break_time":"13:00-14:00","work_days_outside":"14:00-15:00","sunday":null,"saturday_break_time":"13:00-14:00","saturday_outside":"14:00-15:00","saturday":"10:00-15:30","sunday_break_time":null,"sunday_outside":null,"lat":39.975669,"long":44.517482,"status":true},{"id":191,"create_date":"2021-04-06T07:42:54.392Z","update_date":"2022-01-04T06:07:28.861Z","region":3,"city":90,"address":"Գ. Բյուրավան","postal_code":"0717","work_days":"10:00-15:30","work_days_break_time":"13:00-14:00","work_days_outside":"14:00-15:00","sunday":null,"saturday_break_time":"13:00-14:00","saturday_outside":"14:00-15:00","saturday":"10:00-15:30","sunday_break_time":null,"sunday_outside":null,"lat":40.015438,"long":44.518271,"status":true},{"id":192,"create_date":"2021-04-06T07:42:54.395Z","update_date":"2022-01-04T06:07:28.865Z","region":3,"city":91,"address":"Գ. Բուրաստան","postal_code":"0718","work_days":"10:00-15:30","work_days_break_time":"13:00-14:00","work_days_outside":"14:00-15:00","sunday":null,"saturday_break_time":"13:00-14:00","saturday_outside":"14:00-15:00","saturday":"10:00-15:30","sunday_break_time":null,"sunday_outside":null,"lat":39.991233,"long":44.498744,"status":true},{"id":193,"create_date":"2021-04-06T07:42:54.398Z","update_date":"2022-01-04T06:07:28.868Z","region":3,"city":92,"address":"Գ. Գետազատ","postal_code":"0719","work_days":"09:00-17:00","work_days_break_time":null,"work_days_outside":null,"sunday":null,"saturday_break_time":null,"saturday_outside":null,"saturday":"09:00-15:00","sunday_break_time":null,"sunday_outside":null,"lat":40.03765,"long":44.564028,"status":true},{"id":194,"create_date":"2021-04-06T07:42:54.400Z","update_date":"2022-01-04T06:07:28.880Z","region":3,"city":93,"address":"Գ. Դալար","postal_code":"0720","work_days":"09:00-17:00","work_days_break_time":"13:00-14:00","work_days_outside":"14:00-15:00","sunday":null,"saturday_break_time":"13:00-14:00","saturday_outside":"14:00-15:00","saturday":"09:00-15:00","sunday_break_time":null,"sunday_outside":null,"lat":39.974449,"long":44.525405,"status":true},{"id":195,"create_date":"2021-04-06T07:42:54.403Z","update_date":"2022-01-04T06:07:28.886Z","region":3,"city":94,"address":"Գ. Դեղձուտ","postal_code":"0721","work_days":"10:00-15:30","work_days_break_time":"13:00-14:00","work_days_outside":"14:00-15:00","sunday":null,"saturday_break_time":"13:00-14:00","saturday_outside":"14:00-15:00","saturday":"10:00-15:30","sunday_break_time":null,"sunday_outside":null,"lat":40.027329,"long":44.548569,"status":true},{"id":196,"create_date":"2021-04-06T07:42:54.406Z","update_date":"2022-01-04T06:07:28.886Z","region":3,"city":95,"address":"Գ. Դիմիտրով","postal_code":"0722","work_days":"09:00-17:00","work_days_break_time":null,"work_days_outside":null,"sunday":null,"saturday_break_time":null,"saturday_outside":null,"saturday":"09:00-15:00","sunday_break_time":null,"sunday_outside":null,"lat":40.007737,"long":44.489754,"status":true},{"id":197,"create_date":"2021-04-06T07:42:54.409Z","update_date":"2022-01-04T06:07:28.883Z","region":3,"city":96,"address":"Գ. Կանաչուտ","postal_code":"0723","work_days":"10:00-15:30","work_days_break_time":"13:00-14:00","work_days_outside":"14:00-15:00","sunday":null,"saturday_break_time":"13:00-14:00","saturday_outside":"11:30-12:30","saturday":"10:00-15:30","sunday_break_time":null,"sunday_outside":null,"lat":40.010138,"long":44.546085,"status":true},{"id":198,"create_date":"2021-04-06T07:42:54.412Z","update_date":"2022-01-04T06:07:28.887Z","region":3,"city":97,"address":"Գ. Մասիս","postal_code":"0724","work_days":"10:00-15:30","work_days_break_time":"13:00-14:00","work_days_outside":"14:00-15:00","sunday":null,"saturday_break_time":"13:00-14:00","saturday_outside":"14:00-15:00","saturday":"10:00-15:30","sunday_break_time":null,"sunday_outside":null,"lat":39.997354,"long":44.493806,"status":true},{"id":199,"create_date":"2021-04-06T07:42:54.414Z","update_date":"2022-01-04T06:07:28.899Z","region":3,"city":98,"address":"Գ. Մխչյան","postal_code":"0725","work_days":"09:00-17:00","work_days_break_time":null,"work_days_outside":null,"sunday":null,"saturday_break_time":null,"saturday_outside":null,"saturday":"09:00-15:00","sunday_break_time":null,"sunday_outside":null,"lat":40.022576,"long":44.486562,"status":true},{"id":200,"create_date":"2021-04-06T07:42:54.417Z","update_date":"2022-01-04T06:07:28.903Z","region":3,"city":99,"address":"Գ. Մրգանուշ","postal_code":"0726","work_days":"10:00-15:30","work_days_break_time":"13:00-14:00","work_days_outside":"14:00-15:00","sunday":null,"saturday_break_time":"13:00-14:00","saturday_outside":"14:00-15:00","saturday":"10:00-15:30","sunday_break_time":null,"sunday_outside":null,"lat":40.028818,"long":44.559213,"status":true},{"id":201,"create_date":"2021-04-06T07:42:54.420Z","update_date":"2022-05-06T10:44:53.436Z","region":3,"city":100,"address":" Մրգավան","postal_code":"0727","work_days":"10:00-15:30","work_days_break_time":"13:00-14:00","work_days_outside":"14:00-15:00","sunday":null,"saturday_break_time":"13:00-14:00","saturday_outside":"14:00-15:00","saturday":"10:00-15:30","sunday_break_time":null,"sunday_outside":null,"lat":39.972526,"long":44.534519,"status":true},{"id":202,"create_date":"2021-04-06T07:42:54.422Z","update_date":"2022-01-04T06:07:28.905Z","region":3,"city":101,"address":"Գ. Մրգավետ","postal_code":"0728","work_days":"10:00-15:30","work_days_break_time":"13:00-14:00","work_days_outside":"14:00-15:00","sunday":null,"saturday_break_time":"13:00-14:00","saturday_outside":"14:00-15:00","saturday":"10:00-15:30","sunday_break_time":null,"sunday_outside":null,"lat":40.028157,"long":44.484603,"status":true},{"id":203,"create_date":"2021-04-06T07:42:54.426Z","update_date":"2022-01-04T08:01:48.943Z","region":3,"city":102,"address":"Գ. Ն.Դվին","postal_code":"0729","work_days":"10:00-15:30","work_days_break_time":"13:00-14:00","work_days_outside":"14:00-15:00","sunday":null,"saturday_break_time":"13:00-14:00","saturday_outside":"11:30-12:30","saturday":"10:00-15:30","sunday_break_time":null,"sunday_outside":null,"lat":40.02037,"long":44.583114,"status":true},{"id":204,"create_date":"2021-04-06T07:42:54.429Z","update_date":"2022-01-04T06:07:28.907Z","region":3,"city":103,"address":"Գ. Նշավան","postal_code":"0730","work_days":"10:00-15:30","work_days_break_time":"13:00-14:00","work_days_outside":"14:00-15:00","sunday":null,"saturday_break_time":"13:00-14:00","saturday_outside":"14:00-15:00","saturday":"10:00-15:30","sunday_break_time":null,"sunday_outside":null,"lat":40.026224,"long":44.524061,"status":true},{"id":205,"create_date":"2021-04-06T07:42:54.430Z","update_date":"2022-01-04T06:07:28.908Z","region":3,"city":40,"address":"Գ. Նորաշեն","postal_code":"0731","work_days":"10:00-15:30","work_days_break_time":"13:00-14:00","work_days_outside":"11:30-12:30","sunday":null,"saturday_break_time":"13:00-14:00","saturday_outside":"11:30-12:30","saturday":"10:00-15:30","sunday_break_time":null,"sunday_outside":null,"lat":40.000868,"long":44.591957,"status":true},{"id":206,"create_date":"2021-04-06T07:42:54.433Z","update_date":"2023-05-31T12:26:12.132Z","region":3,"city":104,"address":"Գ. Շահումյան","postal_code":"0732","work_days":"09:00-17:00","work_days_break_time":null,"work_days_outside":null,"sunday":null,"saturday_break_time":null,"saturday_outside":null,"saturday":"09:00-15:00","sunday_break_time":null,"sunday_outside":null,"lat":39.940507,"long":44.571333,"status":true},{"id":207,"create_date":"2021-04-06T07:42:54.437Z","update_date":"2022-01-04T06:07:28.911Z","region":3,"city":105,"address":"Գ. Ոստան","postal_code":"0733","work_days":"10:00-15:30","work_days_break_time":"13:00-14:00","work_days_outside":"14:00-15:00","sunday":null,"saturday_break_time":"13:00-14:00","saturday_outside":"14:00-15:00","saturday":"10:00-15:30","sunday_break_time":null,"sunday_outside":null,"lat":39.963751,"long":44.556478,"status":true},{"id":208,"create_date":"2021-04-06T07:42:54.441Z","update_date":"2022-01-04T06:07:28.928Z","region":3,"city":106,"address":"Գ. Ջրաշեն","postal_code":"0734","work_days":"10:00-15:30","work_days_break_time":"13:00-14:00","work_days_outside":"14:00-15:00","sunday":null,"saturday_break_time":"13:00-14:00","saturday_outside":"14:00-15:00","saturday":"10:00-15:30","sunday_break_time":null,"sunday_outside":null,"lat":40.053455,"long":44.514038,"status":true},{"id":209,"create_date":"2021-04-06T07:42:54.444Z","update_date":"2022-01-04T07:09:53.307Z","region":3,"city":604,"address":"Գ. Վ.Արտաշատ","postal_code":"0735","work_days":"09:00-17:00","work_days_break_time":null,"work_days_outside":null,"sunday":null,"saturday_break_time":null,"saturday_outside":null,"saturday":"09:00-15:00","sunday_break_time":null,"sunday_outside":null,"lat":39.998036,"long":44.5854,"status":true},{"id":210,"create_date":"2021-04-06T07:42:54.448Z","update_date":"2022-01-04T07:09:29.175Z","region":3,"city":605,"address":"Գ. Վ.Դվին","postal_code":"0736","work_days":"10:00-15:30","work_days_break_time":"13:00-14:00","work_days_outside":"14:00-15:00","sunday":null,"saturday_break_time":"13:00-14:00","saturday_outside":"14:00-15:00","saturday":"10:00-15:30","sunday_break_time":null,"sunday_outside":null,"lat":40.023133,"long":44.591543,"status":true},{"id":211,"create_date":"2021-04-06T07:42:54.451Z","update_date":"2022-01-04T06:07:28.943Z","region":3,"city":109,"address":"Գ. Քաղցրաշեն","postal_code":"0737","work_days":"09:00-17:00","work_days_break_time":null,"work_days_outside":null,"sunday":null,"saturday_break_time":null,"saturday_outside":null,"saturday":"09:00-15:00","sunday_break_time":null,"sunday_outside":null,"lat":39.980373,"long":44.622824,"status":true},{"id":212,"create_date":"2021-04-06T07:42:54.453Z","update_date":"2022-01-04T06:07:28.940Z","region":3,"city":97,"address":"Ք. Մասիս, Հանրապետության 2","postal_code":"0801","work_days":"9:00-18:00  ","work_days_break_time":null,"work_days_outside":null,"sunday":null,"saturday_break_time":null,"saturday_outside":null,"saturday":"09:00-16:00 ","sunday_break_time":null,"sunday_outside":null,"lat":40.061424,"long":44.443057,"status":true},{"id":214,"create_date":"2021-04-06T07:42:54.459Z","update_date":"2022-01-04T06:07:28.950Z","region":3,"city":110,"address":"Գ. Այնթափ","postal_code":"0803","work_days":"09:00-17:00","work_days_break_time":null,"work_days_outside":null,"sunday":null,"saturday_break_time":null,"saturday_outside":null,"saturday":"09:00-15:00 ","sunday_break_time":null,"sunday_outside":null,"lat":40.096176,"long":44.463402,"status":true},{"id":215,"create_date":"2021-04-06T07:42:54.463Z","update_date":"2022-01-04T06:07:28.944Z","region":3,"city":111,"address":"Գ. Արբաթ","postal_code":"0804","work_days":"10:00-15:30","work_days_break_time":"13:00-14:00","work_days_outside":"14:00-15:00","sunday":null,"saturday_break_time":"13:00-14:00","saturday_outside":"14:00-15:00","saturday":"10:00-15:30","sunday_break_time":null,"sunday_outside":null,"lat":40.138058,"long":44.402163,"status":true},{"id":216,"create_date":"2021-04-06T07:42:54.465Z","update_date":"2022-01-04T06:07:28.967Z","region":3,"city":112,"address":"Գ. Արգավանդ","postal_code":"0805","work_days":"10:00-15:30","work_days_break_time":"13:00-14:00","work_days_outside":"14:00-15:00","sunday":null,"saturday_break_time":"13:00-14:00","saturday_outside":"14:00-15:00","saturday":"10:00-15:30","sunday_break_time":null,"sunday_outside":null,"lat":40.155882,"long":44.43951,"status":true},{"id":217,"create_date":"2021-04-06T07:42:54.468Z","update_date":"2022-01-04T06:07:28.960Z","region":3,"city":113,"address":"Գ. Գեղանիստ","postal_code":"0806","work_days":"09:00-17:00","work_days_break_time":null,"work_days_outside":null,"sunday":null,"saturday_break_time":null,"saturday_outside":null,"saturday":"09:00-15:00 ","sunday_break_time":null,"sunday_outside":null,"lat":40.146273,"long":44.428088,"status":true},{"id":218,"create_date":"2021-04-06T07:42:54.472Z","update_date":"2022-01-04T06:07:28.951Z","region":3,"city":114,"address":"Գ. Դաշտավան","postal_code":"0807","work_days":"10:00-15:30","work_days_break_time":"13:00-14:00","work_days_outside":"14:00-15:00","sunday":null,"saturday_break_time":"13:00-14:00","saturday_outside":"14:00-15:00","saturday":"10:00-15:30","sunday_break_time":null,"sunday_outside":null,"lat":40.101842,"long":44.393328,"status":true},{"id":219,"create_date":"2021-04-06T07:42:54.475Z","update_date":"2022-01-04T06:07:28.958Z","region":3,"city":115,"address":"Գ. Դարակերտ","postal_code":"0808","work_days":"09:00-17:00","work_days_break_time":"13:00-14:00","work_days_outside":"14:00-15:00","sunday":null,"saturday_break_time":"13:00-14:00","saturday_outside":"14:00-15:00","saturday":"09:00-15:00","sunday_break_time":null,"sunday_outside":null,"lat":40.10627,"long":44.416024,"status":true},{"id":220,"create_date":"2021-04-06T07:42:54.478Z","update_date":"2022-01-04T06:07:28.988Z","region":3,"city":116,"address":"Գ. Դարբնիկ","postal_code":"0809","work_days":"10:00-15:30","work_days_break_time":"13:00-14:00","work_days_outside":"14:00-15:00","sunday":null,"saturday_break_time":"13:00-14:00","saturday_outside":"14:00-15:00","saturday":"10:00-15:30","sunday_break_time":null,"sunday_outside":null,"lat":40.10708,"long":44.376963,"status":true},{"id":221,"create_date":"2021-04-06T07:42:54.480Z","update_date":"2022-01-04T06:07:28.992Z","region":3,"city":117,"address":"Գ. Զորակ","postal_code":"0810","work_days":"10:00-15:30","work_days_break_time":"13:00-14:00","work_days_outside":"14:00-15:00","sunday":null,"saturday_break_time":"13:00-14:00","saturday_outside":"14:00-15:00","saturday":"10:00-15:30","sunday_break_time":null,"sunday_outside":null,"lat":40.092817,"long":44.394534,"status":true},{"id":222,"create_date":"2021-04-06T07:42:54.483Z","update_date":"2022-01-04T06:07:28.984Z","region":3,"city":118,"address":"Գ. Խաչփառ","postal_code":"0811","work_days":"10:00-15:30","work_days_break_time":null,"work_days_outside":null,"sunday":null,"saturday_break_time":null,"saturday_outside":null,"saturday":"10:00-15:30","sunday_break_time":null,"sunday_outside":null,"lat":40.127818,"long":44.403353,"status":true},{"id":223,"create_date":"2021-04-06T07:42:54.486Z","update_date":"2022-01-04T06:07:28.986Z","region":3,"city":119,"address":"Գ. Հայանիստ","postal_code":"0812","work_days":"09:00-17:00","work_days_break_time":null,"work_days_outside":null,"sunday":null,"saturday_break_time":null,"saturday_outside":null,"saturday":"09:00-15:00 ","sunday_break_time":null,"sunday_outside":null,"lat":40.118432,"long":44.370428,"status":true},{"id":224,"create_date":"2021-04-06T07:42:54.488Z","update_date":"2022-01-04T06:07:28.992Z","region":3,"city":120,"address":"Գ. Հովտաշատ","postal_code":"0813","work_days":"09:00-17:00","work_days_break_time":null,"work_days_outside":null,"sunday":null,"saturday_break_time":null,"saturday_outside":null,"saturday":"09:00-15:00 ","sunday_break_time":null,"sunday_outside":null,"lat":40.100344,"long":44.34318,"status":true},{"id":225,"create_date":"2021-04-06T07:42:54.491Z","update_date":"2022-01-04T06:07:29.006Z","region":3,"city":121,"address":"Գ. Ղուկասավան","postal_code":"0814","work_days":"10:00-15:30","work_days_break_time":"13:00-14:00","work_days_outside":"14:00-15:00","sunday":null,"saturday_break_time":"13:00-14:00","saturday_outside":"14:00-15:00","saturday":"10:00-15:30","sunday_break_time":null,"sunday_outside":null,"lat":40.125296,"long":44.415576,"status":true},{"id":226,"create_date":"2021-04-06T07:42:54.494Z","update_date":"2022-01-04T06:07:29.005Z","region":3,"city":122,"address":"Գ. Մարմարաշեն","postal_code":"0815","work_days":"09:00-17:00","work_days_break_time":null,"work_days_outside":null,"sunday":null,"saturday_break_time":null,"saturday_outside":null,"saturday":"09:00-15:00","sunday_break_time":null,"sunday_outside":null,"lat":40.056205,"long":44.470441,"status":true},{"id":227,"create_date":"2021-04-06T07:42:54.497Z","update_date":"2022-01-04T06:07:29.011Z","region":3,"city":123,"address":"Գ. Նիզամի","postal_code":"0816","work_days":"10:00-15:30","work_days_break_time":"13:00-14:00","work_days_outside":"14:00-15:00","sunday":null,"saturday_break_time":"13:00-14:00","saturday_outside":"14:00-15:00","saturday":"10:00-15:30","sunday_break_time":null,"sunday_outside":null,"lat":40.091602,"long":44.402481,"status":true},{"id":228,"create_date":"2021-04-06T07:42:54.499Z","update_date":"2022-01-04T06:07:29.014Z","region":3,"city":124,"address":"Գ. Նոր Խարբերդ","postal_code":"0817","work_days":"09:00-17:00","work_days_break_time":null,"work_days_outside":null,"sunday":null,"saturday_break_time":null,"saturday_outside":null,"saturday":"09:00-15:00","sunday_break_time":null,"sunday_outside":null,"lat":40.087294,"long":44.472338,"status":true},{"id":229,"create_date":"2021-04-06T07:42:54.502Z","update_date":"2022-01-04T06:07:29.014Z","region":3,"city":125,"address":"Գ. Նորաբաց","postal_code":"0818","work_days":"10:00-15:30","work_days_break_time":"13:00-14:00","work_days_outside":"14:00-15:00","sunday":null,"saturday_break_time":"13:00-14:00","saturday_outside":"14:00-15:00","saturday":"10:00-15:30","sunday_break_time":null,"sunday_outside":null,"lat":40.105742,"long":44.431564,"status":true},{"id":230,"create_date":"2021-04-06T07:42:54.505Z","update_date":"2022-01-04T06:07:29.013Z","region":3,"city":126,"address":"Գ. Նորամարգ","postal_code":"0819","work_days":"10:00-15:30","work_days_break_time":"13:00-14:00","work_days_outside":"14:00-15:00","sunday":null,"saturday_break_time":"13:00-14:00","saturday_outside":"14:00-15:00","saturday":"10:00-15:30","sunday_break_time":null,"sunday_outside":null,"lat":40.028518,"long":44.414224,"status":true},{"id":231,"create_date":"2021-04-06T07:42:54.508Z","update_date":"2022-01-04T06:07:29.015Z","region":3,"city":127,"address":"Գ. Ջրահովիտ","postal_code":"0820","work_days":"09:00-17:00","work_days_break_time":"13:00-14:00","work_days_outside":"14:00-15:00","sunday":null,"saturday_break_time":"13:00-14:00","saturday_outside":"14:00-15:00","saturday":"09:00-15:00","sunday_break_time":null,"sunday_outside":null,"lat":40.042891,"long":44.47317,"status":true},{"id":232,"create_date":"2021-04-06T07:42:54.510Z","update_date":"2022-01-04T06:07:29.031Z","region":3,"city":128,"address":"Գ. Ռանչպար","postal_code":"0821","work_days":"10:00-15:30","work_days_break_time":"13:00-14:00","work_days_outside":"14:00-15:00","sunday":null,"saturday_break_time":"13:00-14:00","saturday_outside":"14:00-15:00","saturday":"10:00-15:30","sunday_break_time":null,"sunday_outside":null,"lat":40.027154,"long":44.364925,"status":true},{"id":233,"create_date":"2021-04-06T07:42:54.513Z","update_date":"2022-01-04T06:07:29.030Z","region":3,"city":129,"address":"Գ. Սայաթ Նովա","postal_code":"0822","work_days":"09:00-17:00","work_days_break_time":null,"work_days_outside":null,"sunday":null,"saturday_break_time":null,"saturday_outside":null,"saturday":"09:00-15:00","sunday_break_time":null,"sunday_outside":null,"lat":40.074647,"long":44.398126,"status":true},{"id":234,"create_date":"2021-04-06T07:42:54.516Z","update_date":"2022-01-04T06:07:29.035Z","region":3,"city":130,"address":"Գ. Սիս","postal_code":"0823","work_days":"10:00-15:30","work_days_break_time":"13:00-14:00","work_days_outside":"14:00-15:00","sunday":null,"saturday_break_time":"13:00-14:00","saturday_outside":"14:00-15:00","saturday":"10:00-15:30","sunday_break_time":null,"sunday_outside":null,"lat":40.059949,"long":44.389331,"status":true},{"id":235,"create_date":"2021-04-06T07:42:54.521Z","update_date":"2022-12-05T06:10:48.578Z","region":4,"city":656,"address":"ք․Արմավիր , Հանրապետության 30","postal_code":"0901","work_days":"09:00-18:00","work_days_break_time":null,"work_days_outside":null,"sunday":null,"saturday_break_time":null,"saturday_outside":null,"saturday":"09:00-16:00","sunday_break_time":null,"sunday_outside":null,"lat":40.1550407409668,"long":44.0263862609863,"status":true},{"id":238,"create_date":"2021-04-06T07:42:54.531Z","update_date":"2023-08-25T08:06:49.762Z","region":4,"city":656,"address":"Գ. Նորապատ","postal_code":"0904","work_days":"09:00-17:00","work_days_break_time":"13:00-14:00","work_days_outside":"12:00-13:00","sunday":null,"saturday_break_time":"13:00-14:00","saturday_outside":"12:00-13:00","saturday":"09:00-15:00","sunday_break_time":null,"sunday_outside":null,"lat":40.14413,"long":44.030817,"status":true},{"id":239,"create_date":"2021-04-06T07:42:54.534Z","update_date":"2022-12-05T06:11:54.302Z","region":4,"city":656,"address":"ք․Արմավիր,Գորկու 59","postal_code":"0905","work_days":"09:00-17:00","work_days_break_time":null,"work_days_outside":null,"sunday":null,"saturday_break_time":null,"saturday_outside":null,"saturday":"09:00-15:00","sunday_break_time":null,"sunday_outside":null,"lat":40.1585540771484,"long":44.0470542907715,"status":true},{"id":240,"create_date":"2021-04-06T07:42:54.538Z","update_date":"2022-12-05T06:12:53.896Z","region":4,"city":656,"address":"ք․Արմավիր, Բաղրամյան 31","postal_code":"0906","work_days":"09:00-17:00","work_days_break_time":null,"work_days_outside":null,"sunday":null,"saturday_break_time":null,"saturday_outside":null,"saturday":"09:00-15:00","sunday_break_time":null,"sunday_outside":null,"lat":40.1589202880859,"long":44.0270919799805,"status":true},{"id":242,"create_date":"2021-04-06T07:42:54.544Z","update_date":"2021-12-29T08:20:29.119Z","region":4,"city":656,"address":"Երևանյան 40 Ա","postal_code":"0909","work_days":"09:00-17:00","work_days_break_time":null,"work_days_outside":null,"sunday":null,"saturday_break_time":null,"saturday_outside":null,"saturday":"09:00-15:00","sunday_break_time":null,"sunday_outside":null,"lat":40.1504516601563,"long":44.0255470275879,"status":true},